TITLE,REGION,DISTANCE,DIST_TYPE,GAIN,HIGHEST,RATING,RATING_COUNT,LATITUDE,LONGITUDE,REPORT_DATE,REPORT_COUNT,URL
Raven Roost,Mount Rainier Area,,,,,2.75,4,47.0088522465,-121.115564347,2018-10-07,6,https://www.wta.org/go-hiking/hikes/raven-roost
Race Track Shortcut,South Cascades,,,,,2.75,4,,,2010-06-26,1,https://www.wta.org/go-hiking/hikes/race-track-shortcut
Ranger Hole - Interrorem Nature Trail,Olympic Peninsula,2.1,roundtrip,200.0,320.0,4.33,12,47.6806854,-122.9923121,2021-04-09,71,https://www.wta.org/go-hiking/hikes/ranger-hole
Remmel Cutoff,North Cascades,,,,,4.0,3,,,2019-06-13,3,https://www.wta.org/go-hiking/hikes/remmel-cutoff
Raging Creek,Central Cascades,,,,,3.25,4,,,2018-08-14,4,https://www.wta.org/go-hiking/hikes/raging-creek
Railroad Creek,Central Cascades,,,,,2.75,4,,,2019-09-15,35,https://www.wta.org/go-hiking/hikes/railroad-creek
Richmond Mine,South Cascades,,,,,2.75,4,,,2020-08-27,12,https://www.wta.org/go-hiking/hikes/richmond-mine
Reiber Road Loop,Eastern Washington,9.0,roundtrip,100.0,,5.0,4,,,,0,https://www.wta.org/go-hiking/hikes/reiber-road-loop
Remmel Mountain,North Cascades,,,,,1.5,4,,,2019-07-27,5,https://www.wta.org/go-hiking/hikes/remmel-mountain
Rainbow Ridge,North Cascades,,,1700.0,5300.0,2.88,8,48.7634311379,-121.699676514,2020-09-28,30,https://www.wta.org/go-hiking/hikes/rainbow-ridge
Reflection Box Canyon,Mount Rainier Area,,,,,3.8,5,,,2018-07-11,7,https://www.wta.org/go-hiking/hikes/reflection-box-canyon
Rat Trap Pass Snowshoe,North Cascades,7.5,roundtrip,1900.0,3500.0,3.0,2,,,2019-01-28,3,https://www.wta.org/go-hiking/hikes/rat-trap-pass-snowshoe
Remmel Lake,North Cascades,,,,,2.5,4,,,2020-07-17,8,https://www.wta.org/go-hiking/hikes/remmel-lake
Pomas Creek,Central Cascades,,,,,3.75,4,,,2020-07-24,9,https://www.wta.org/go-hiking/hikes/pomas-creek
Pioneer's Path Nature,Olympic Peninsula,,,,,3.25,4,,,2017-06-01,2,https://www.wta.org/go-hiking/hikes/pioneers-path-nature
Pyramid Mountain,Central Cascades,18.0,roundtrip,3000.0,8243.0,3.0,4,48.01805556,-120.50527778,2020-08-01,44,https://www.wta.org/go-hiking/hikes/pyramid-mountain
Ptarmigan Creek,North Cascades,,,,,3.25,4,,,,0,https://www.wta.org/go-hiking/hikes/ptarmigan-creek
Pyramid Creek,Central Cascades,,,,,3.0,4,,,2020-09-26,20,https://www.wta.org/go-hiking/hikes/pyramid-creek
Placid Lake,South Cascades,,,,,4.25,4,,,2019-09-01,3,https://www.wta.org/go-hiking/hikes/placid-lake
Preston Ridge,North Cascades,,,,,2.67,3,,,,0,https://www.wta.org/go-hiking/hikes/preston-ridge
Pilot Ridge,North Cascades,,,,,2.8,5,48.0448418,-121.258825,2020-08-29,67,https://www.wta.org/go-hiking/hikes/pilot-ridge
Port Angeles Waterfront Trail,Olympic Peninsula,,,,,2.25,4,,,2014-08-17,1,https://www.wta.org/go-hiking/hikes/port-angeles-waterfront-trail
Pot Peak,Central Cascades,,,,,1.86,7,47.9818789985,-120.279006958,2021-04-18,14,https://www.wta.org/go-hiking/hikes/pot-peak
Pinnacle Saddle Snowshoe,Mount Rainier Area,6.0,roundtrip,1400.0,6100.0,3.5,2,46.7666069,-121.6990741,2019-03-20,23,https://www.wta.org/go-hiking/hikes/pinnacle-saddle-snowshoe
Ponderosa,South Cascades,,,,,3.75,4,,,,0,https://www.wta.org/go-hiking/hikes/ponderosa
Poodle Dog Pass,North Cascades,,,,4800.0,2.2,5,47.9834876325,-121.380858421,2020-08-09,21,https://www.wta.org/go-hiking/hikes/poodle-dog-pass
Pine Creek,North Cascades,,,,,2.67,3,,,,0,https://www.wta.org/go-hiking/hikes/pine-creek
Phelps Ridge High Route,Central Cascades,,,,,1.5,4,,,2010-07-11,4,https://www.wta.org/go-hiking/hikes/phelps-ridge-high-route
Pugh Ridge,Central Cascades,12.4,roundtrip,2833.0,6783.0,3.2,5,48.0113,-120.57225,2020-07-20,13,https://www.wta.org/go-hiking/hikes/pugh-ridge
Point Defiance,North Cascades,,,,,1.25,4,,,2008-09-08,1,https://www.wta.org/go-hiking/hikes/point-defiance
Little Beaver Creek,North Cascades,35.0,roundtrip,6213.0,5197.0,2.2,5,48.9160695273,-121.073970795,2020-07-17,17,https://www.wta.org/go-hiking/hikes/little-beaver-creek
Wilburton Hill Park,Puget Sound and Islands,2.8,trails,175.0,230.0,3.0,2,47.6100664047,-122.17487812,2021-04-12,10,https://www.wta.org/go-hiking/hikes/wilburton-hill-park
Camano Island State Park,Puget Sound and Islands,2.6,roundtrip,200.0,200.0,2.82,11,48.1219666667,-122.491016667,2021-04-11,91,https://www.wta.org/go-hiking/hikes/camano-island-state-park
Cowiche Mountain,Central Washington,7.0,roundtrip,1140.0,2970.0,3.0,1,46.6597861084,-120.756998062,2021-04-03,24,https://www.wta.org/go-hiking/hikes/cowiche-mountain
Coal Creek Trail,Issaquah Alps,6.0,roundtrip,550.0,600.0,3.28,25,47.5541912,-122.1665777,2021-04-19,220,https://www.wta.org/go-hiking/hikes/coal-creek
Lower Gray Wolf River,Olympic Peninsula,8.4,roundtrip,800.0,1500.0,3.64,22,47.9670333333,-123.1274,2021-04-21,232,https://www.wta.org/go-hiking/hikes/gray-wolf-river
Lake Whatcom Park - Hertz Trail,Puget Sound and Islands,6.2,roundtrip,100.0,,3.56,9,48.7302068179,-122.309044227,2021-04-03,48,https://www.wta.org/go-hiking/hikes/lake-whatcom-park-hertz-trail
Ohme Gardens County Park,Central Washington,1.0,roundtrip,150.0,800.0,5.0,1,47.4780493397,-120.326390043,2019-08-20,1,https://www.wta.org/go-hiking/hikes/ohme-gardens
Padilla Bay,Puget Sound and Islands,4.4,roundtrip,30.0,30.0,3.23,13,48.4803,-122.47305,2021-03-12,116,https://www.wta.org/go-hiking/hikes/padilla-bay
Anacortes Community Forest Lands - Mount Erie,Puget Sound and Islands,5.0,roundtrip,1000.0,1300.0,4.36,14,48.4690161574,-122.629368497,2021-04-20,140,https://www.wta.org/go-hiking/hikes/mount-erie
Hall Point,Snoqualmie Region,,,,,0.0,0,47.4356482574,-121.651964059,2021-04-01,11,https://www.wta.org/go-hiking/hikes/hall-point
Hansen Ridge,Snoqualmie Region,15.0,roundtrip,1300.0,4100.0,0.0,0,47.3629553026,-121.530590057,2021-04-04,87,https://www.wta.org/go-hiking/hikes/harris-lake-trail
Greenway Mountain,Snoqualmie Region,,,,,4.0,1,47.4364480658,-121.661224365,2021-04-16,18,https://www.wta.org/go-hiking/hikes/greenway-mountain
Zig Zag Trail,Snoqualmie Region,,,,,2.75,4,47.4356425254,-121.655961871,2021-04-16,47,https://www.wta.org/go-hiking/hikes/zig-zag-trail
Mount Kent,Snoqualmie Region,,,,,4.0,1,47.4064533249,-121.604640484,2020-09-04,15,https://www.wta.org/go-hiking/hikes/mount-kent
Duke of Kent,Snoqualmie Region,7.0,roundtrip,3400.0,4840.0,3.0,4,47.409284754,-121.602258682,2020-06-05,6,https://www.wta.org/go-hiking/hikes/duke-of-kent
Bearscout Peak,Snoqualmie Region,,,,5210.0,0.0,0,47.3325554,-121.4844987,2020-06-02,9,https://www.wta.org/go-hiking/hikes/bearscout-peak
Scout Patrol Peak,Snoqualmie Region,,,2724.0,4693.0,3.0,2,47.3556009,-121.5194765,2020-10-29,15,https://www.wta.org/go-hiking/hikes/scout-patrol-peak
Deception Crags,Snoqualmie Region,1.0,roundtrip,250.0,1450.0,3.8,5,47.4380833333,-121.6611,2020-05-09,12,https://www.wta.org/go-hiking/hikes/deception-crags
Ptarmigan Ridge,North Cascades,9.0,roundtrip,1800.0,6100.0,4.48,29,48.8463333333,-121.692666667,2020-12-05,264,https://www.wta.org/go-hiking/hikes/ptarmigan-ridge
Burfoot County Park,Olympic Peninsula,3.0,trails,150.0,200.0,3.33,6,47.1325162042,-122.901652157,2020-08-29,12,https://www.wta.org/go-hiking/hikes/burfoot-park
Point Defiance Park,Puget Sound and Islands,5.0,roundtrip,200.0,300.0,4.12,16,47.3049603032,-122.516784668,2021-04-17,121,https://www.wta.org/go-hiking/hikes/point-defiance-park
Ravensdale Retreat Natural Area,Puget Sound and Islands,3.25,roundtrip,200.0,767.0,2.0,1,47.3555097071,-121.977499106,2021-03-31,6,https://www.wta.org/go-hiking/hikes/ravensdale-retreat-natural-area
Indian Dan State Wildlife Refuge,North Cascades,3.0,roundtrip,200.0,1700.0,0.0,0,48.1117294269,-119.867062569,2021-04-04,4,https://www.wta.org/go-hiking/hikes/indian-dan-state-wildlife-refuge
O'Neil Pass,Olympic Peninsula,12.0,one-way,,5000.0,3.8,5,47.653941015065776,-123.32050323486327,2020-09-03,40,https://www.wta.org/go-hiking/hikes/oneil-pass
Constance Pass,Olympic Peninsula,7.8,one-way,,6080.0,4.4,5,47.7415744529,-123.049535751,2020-09-09,44,https://www.wta.org/go-hiking/hikes/constance-pass
Olallie State Park - Weeks Falls,Snoqualmie Region,1.6,roundtrip,,,3.33,6,47.4418325333,-121.672545969,2021-03-30,14,https://www.wta.org/go-hiking/hikes/weeks-falls
Dirty Harry's Balcony,Snoqualmie Region,4.4,roundtrip,1300.0,2600.0,3.55,53,47.4311697903,-121.632393858,2021-04-21,668,https://www.wta.org/go-hiking/hikes/dirty-harrys-balcony
Spade Lake,Snoqualmie Region,25.6,roundtrip,5200.0,5400.0,3.38,13,47.4095029413,-121.106768847,2020-10-17,94,https://www.wta.org/go-hiking/hikes/spade-lake
Anderson Pass,Olympic Peninsula,,,,4480.0,4.0,4,47.6961153006,-123.326479197,2020-09-03,48,https://www.wta.org/go-hiking/hikes/anderson-pass
Sharpe Park - Sares Head,Puget Sound and Islands,2.1,roundtrip,440.0,490.0,4.29,7,48.43061722989061,-122.66462802886963,2021-03-31,105,https://www.wta.org/go-hiking/hikes/sharpe-park-sares-head
Sams Walker Nature Trail,Southwest Washington,1.1,roundtrip,50.0,100.0,4.0,1,45.6152354,-122.0533525,2019-07-02,5,https://www.wta.org/go-hiking/hikes/sams-walker-nature-trail
Larrabee State Park - Rock Trail,Puget Sound and Islands,2.4,roundtrip,1200.0,1820.0,4.27,11,48.653825162,-122.46488845,2021-04-11,130,https://www.wta.org/go-hiking/hikes/rock-trail
Ring Hill Forest,Puget Sound and Islands,2.6,roundtrip,,,2.67,3,47.7451240534,-122.029309273,2020-11-02,12,https://www.wta.org/go-hiking/hikes/ring-hill-forest
Salmo-Priest Loop,Eastern Washington,19.0,roundtrip,3400.0,6480.0,3.44,9,48.9586089,-117.0775365,2020-10-02,45,https://www.wta.org/go-hiking/hikes/salmo-priest-loop
Rainbow Canyon,Olympic Peninsula,1.0,roundtrip,,,2.25,4,47.8218833333,-122.88335,2021-04-07,8,https://www.wta.org/go-hiking/hikes/rainbow-canyon
Ridgefield National Wildlife Refuge,Southwest Washington,2.0,roundtrip,100.0,100.0,3.8,5,45.8310445,-122.7466311,2020-06-28,22,https://www.wta.org/go-hiking/hikes/ridgefield-national-wildlife-refuge
Pyramid Mountain / Pyramid Peak,Olympic Peninsula,6.8,roundtrip,2400.0,3089.0,3.23,13,48.0662488675,-123.859382389,2021-01-27,79,https://www.wta.org/go-hiking/hikes/pyramid-mountain-1
Pratt Lake Basin,Snoqualmie Region,11.0,roundtrip,2300.0,4100.0,3.9,21,47.3979,-121.48605,2021-03-13,546,https://www.wta.org/go-hiking/hikes/pratt-lake
Pine and Cedar Lakes,Puget Sound and Islands,5.0,roundtrip,1400.0,1600.0,3.81,16,48.6906873888,-122.452929821,2021-04-10,186,https://www.wta.org/go-hiking/hikes/pine-and-cedar-lakes
Packwood Lake,South Cascades,10.0,roundtrip,600.0,3200.0,3.88,32,46.6083666667,-121.627116667,2021-04-21,342,https://www.wta.org/go-hiking/hikes/packwood-lake
Palisades,Mount Rainier Area,15.9,roundtrip,2680.0,5300.0,4.2,15,47.0580458248,-121.573067531,2021-04-23,210,https://www.wta.org/go-hiking/hikes/palisades
Oyster Dome,Puget Sound and Islands,5.0,roundtrip,1050.0,2025.0,4.11,149,48.6096353573,-122.426351309,2021-04-18,1026,https://www.wta.org/go-hiking/hikes/oyster-dome
Noble Knob,Mount Rainier Area,5.0,roundtrip,950.0,6011.0,4.21,34,47.0511337134,-121.523659229,2021-04-15,365,https://www.wta.org/go-hiking/hikes/noble-knob
Larrabee State Park - North Lost Lake Trail,Puget Sound and Islands,9.2,roundtrip,1100.0,,4.0,3,48.7007643,-122.4892558,2021-04-11,58,https://www.wta.org/go-hiking/hikes/north-lost-lake-trail
Green River Natural Area - Potter's Trail,Puget Sound and Islands,4.32,roundtrip,500.0,500.0,2.22,9,47.2763811,-122.0893598,2021-04-11,54,https://www.wta.org/go-hiking/hikes/ogrady
North Fork Sullivan Creek,Eastern Washington,5.7,one-way,3600.0,6600.0,3.5,4,48.854104,-117.287608,2020-09-05,11,https://www.wta.org/go-hiking/hikes/north-fork-sullivan
North Fork Skykomish River,Central Cascades,10.0,roundtrip,1000.0,4000.0,2.83,6,47.9279415,-121.2731497,2020-10-09,72,https://www.wta.org/go-hiking/hikes/north-fork-skykomish-river
Notch Pass,Olympic Peninsula,8.6,roundtrip,2700.0,2500.0,3.73,11,47.8262481833,-122.938853667,2021-04-11,107,https://www.wta.org/go-hiking/hikes/notch-pass
Mount Walker,Olympic Peninsula,4.0,roundtrip,2000.0,2804.0,3.41,29,47.7756,-122.913733333,2021-04-18,351,https://www.wta.org/go-hiking/hikes/mount-walker
Newberry Hill Heritage Park,Olympic Peninsula,13.0,trails,250.0,350.0,4.0,4,47.6345400969,-122.754836082,2021-04-24,31,https://www.wta.org/go-hiking/hikes/newberry-hill-heritage-park
Moran State Park - Mountain Lake,Puget Sound and Islands,3.9,roundtrip,50.0,950.0,3.44,9,48.656994966,-122.818964347,2021-03-06,30,https://www.wta.org/go-hiking/hikes/mountain-lake
Moore Point,Central Cascades,,,,,3.75,4,48.2354567578,-120.615762955,,0,https://www.wta.org/go-hiking/hikes/moore-point
Mount Dickerman,North Cascades,8.2,roundtrip,3950.0,5760.0,4.64,105,48.0538166667,-121.49,2021-04-18,1104,https://www.wta.org/go-hiking/hikes/mount-dickerman
Mount Pilchuck,North Cascades,5.4,roundtrip,2300.0,5327.0,4.57,173,48.0702095372,-121.814682931,2021-04-18,1563,https://www.wta.org/go-hiking/hikes/mount-pilchuck
Mount Peak (Pinnacle Peak),Puget Sound and Islands,1.8,roundtrip,1000.0,1800.0,3.23,26,47.1788039663,-121.973648071,2021-04-08,194,https://www.wta.org/go-hiking/hikes/mount-peak-pinnacle-peak
Moss Lake,Puget Sound and Islands,2.5,roundtrip,,,3.0,4,47.6928142,-121.8503537,2021-03-09,41,https://www.wta.org/go-hiking/hikes/moss-lake
Middle Fork Snoqualmie River,Snoqualmie Region,12.0,roundtrip,200.0,1100.0,3.74,31,47.54795,-121.5384,2021-04-09,518,https://www.wta.org/go-hiking/hikes/middle-fork-snoqualmie-upstream
McClellan Butte,Snoqualmie Region,9.0,roundtrip,3700.0,5162.0,4.05,40,47.4141833333,-121.588416667,2021-04-15,542,https://www.wta.org/go-hiking/hikes/mcclellan-butte
Mildred Lakes,Olympic Peninsula,9.0,roundtrip,2300.0,4100.0,3.5,16,47.5752833333,-123.2612,2020-11-11,108,https://www.wta.org/go-hiking/hikes/mildred-lakes
Upper Lyman Lake,Central Cascades,,,,,3.57,7,48.1974869,-120.9464914,2020-08-14,41,https://www.wta.org/go-hiking/hikes/upper-lyman-lake
Wagon Road,Eastern Washington,,,,,4.2,5,,,,0,https://www.wta.org/go-hiking/hikes/wagon-road
Way Creek,Snoqualmie Region,,,,,3.8,5,47.341372,-120.9032093,2020-05-09,19,https://www.wta.org/go-hiking/hikes/way-creek
Valley Ski,South Cascades,,,,,3.0,3,,,,0,https://www.wta.org/go-hiking/hikes/valley-ski
Waptus Burn,Snoqualmie Region,,,,,3.5,4,,,2020-08-14,7,https://www.wta.org/go-hiking/hikes/waptus-burn
Valley Trail,South Cascades,,,,,3.75,4,,,2011-05-23,1,https://www.wta.org/go-hiking/hikes/valley-trail
Virginia,North Cascades,,,,,2.5,4,,,,0,https://www.wta.org/go-hiking/hikes/virginia
Vanson Peak,South Cascades,13.2,roundtrip,2600.0,4948.0,3.75,4,46.429383,-122.154817,2020-07-26,22,https://www.wta.org/go-hiking/hikes/vanson-peak
Two Lakes,South Cascades,,,,,3.0,4,,,2018-09-01,4,https://www.wta.org/go-hiking/hikes/two-lakes
Waptus Pass,Snoqualmie Region,,,,,3.75,4,47.4841666667,-121.202933333,2020-11-06,49,https://www.wta.org/go-hiking/hikes/waptus-pass
Waptus Horse Ford,Snoqualmie Region,,,,,2.25,4,,,2018-07-14,11,https://www.wta.org/go-hiking/hikes/waptus-horse-ford
Vic Meadows,North Cascades,,,,,4.0,4,,,,0,https://www.wta.org/go-hiking/hikes/vic-meadows
Vanson Ridge,South Cascades,,,,,2.6,5,46.417568,-122.1723948,2019-08-06,8,https://www.wta.org/go-hiking/hikes/vanson-ridge
Wallula Habitat Management Unit,Central Washington,6.0,roundtrip,,,3.5,4,46.0677523014,-118.902711868,2013-02-01,1,https://www.wta.org/go-hiking/hikes/wallula-habitat-management-unit
Wenatchee,Eastern Washington,,,,,3.5,4,,,,0,https://www.wta.org/go-hiking/hikes/wenatchee
Upper Maynard Burn,Olympic Peninsula,,,,,3.8,5,,,2020-07-05,2,https://www.wta.org/go-hiking/hikes/upper-maynard-burn
Wanlick Creek,North Cascades,,,,,3.0,3,,,,0,https://www.wta.org/go-hiking/hikes/wanlick-creek
Twisp River,North Cascades,,,,,2.6,5,,,2019-05-10,12,https://www.wta.org/go-hiking/hikes/twisp-river
Twin Peaks (Horse Lake Mountain),Central Washington,,,,,3.8,5,47.3899912,-120.4246594,2021-03-20,27,https://www.wta.org/go-hiking/hikes/twin-peaks-horse-lake-mountain
Twin Peaks,South Cascades,,,,,4.0,4,47.3820790948,-120.443286896,2017-04-15,3,https://www.wta.org/go-hiking/hikes/twin-peaks
Trout Lake,Central Cascades,11.5,roundtrip,2000.0,4800.0,3.11,9,47.6059,-120.917033333,2020-09-06,81,https://www.wta.org/go-hiking/hikes/trout-lake
Troublesome Creek Nature,Central Cascades,,,,,2.67,3,47.8982833333,-121.40145,2017-10-24,7,https://www.wta.org/go-hiking/hikes/troublesome-creek-nature
Tucker Creek,South Cascades,,,,,3.25,4,,,,0,https://www.wta.org/go-hiking/hikes/tucker-creek
Twenty Mile Creek,North Cascades,,,,,3.5,4,,,,0,https://www.wta.org/go-hiking/hikes/twenty-mile-creek
Tshletshy Creek,Olympic Peninsula,,,,,2.25,4,,,2005-07-29,1,https://www.wta.org/go-hiking/hikes/tshletshy-creek
Turquoise Lake,Central Cascades,,,,,3.75,4,,,1998-07-13,1,https://www.wta.org/go-hiking/hikes/turquoise-lake
Tunnel,Eastern Washington,,,,,2.75,4,,,,0,https://www.wta.org/go-hiking/hikes/tunnel
Twin Lakes (North Cascades),North Cascades,,,,,2.25,8,48.9434833333,-121.662466667,2020-11-22,41,https://www.wta.org/go-hiking/hikes/twin-lakes-2
Trail Lake Coulee,Central Washington,5.0,roundtrip,100.0,,2.6,5,47.5343666802,-119.286540075,2020-02-15,4,https://www.wta.org/go-hiking/hikes/trail-lake-coulee
Teeley Creek,South Cascades,,,,,2.75,4,,,2019-06-09,9,https://www.wta.org/go-hiking/hikes/teeley-creek
Bessemer Mountain,Snoqualmie Region,13.0,roundtrip,4100.0,5028.0,3.2,10,47.5158833333,-121.613416667,2021-04-06,96,https://www.wta.org/go-hiking/hikes/bessemer-mountain
Moose Lake,Olympic Peninsula,8.2,roundtrip,1500.0,,4.33,3,47.9396162,-123.419483,2020-09-10,51,https://www.wta.org/go-hiking/hikes/moose-lake
Deer Park to Maiden Peak,Olympic Peninsula,9.0,roundtrip,2100.0,6200.0,4.67,6,47.9496767472,-123.264752984,2020-10-05,62,https://www.wta.org/go-hiking/hikes/deer-park-to-maiden-peak
PJ Lake,Olympic Peninsula,1.8,roundtrip,825.0,5020.0,2.5,6,47.945833,-123.425467,2020-07-15,17,https://www.wta.org/go-hiking/hikes/pj-lake
Lillian Ridge,Olympic Peninsula,4.0,roundtrip,200.0,6100.0,4.0,6,47.9179787806,-123.382129669,2020-08-11,54,https://www.wta.org/go-hiking/hikes/lillian-ridge
Grand Ridge,Olympic Peninsula,15.0,roundtrip,3100.0,6625.0,4.55,11,47.9184166667,-123.382116667,2020-09-20,124,https://www.wta.org/go-hiking/hikes/grand-ridge
Grand Valley,Olympic Peninsula,7.9,roundtrip,2080.0,6450.0,4.25,20,47.9182978536,-123.3822155,2020-09-19,82,https://www.wta.org/go-hiking/hikes/grand-valley
Badger Valley,Olympic Peninsula,8.6,roundtrip,2080.0,6400.0,3.0,7,47.9183553764,-123.382204771,2020-09-10,59,https://www.wta.org/go-hiking/hikes/badger-vallley
Rain Shadow Loop,Olympic Peninsula,0.5,roundtrip,170.0,6007.0,4.4,5,47.9546395147,-123.2594347,2020-09-06,20,https://www.wta.org/go-hiking/hikes/rain-shadow-loop
Eastside Loop,Mount Rainier Area,36.0,roundtrip,7430.0,6800.0,0.0,0,46.8906920258,-121.596825601,2019-07-04,5,https://www.wta.org/go-hiking/hikes/eastside-loop
Spray Park Loop,Mount Rainier Area,16.0,roundtrip,5100.0,6375.0,4.8,10,46.9330697019,-121.864284687,2020-10-18,86,https://www.wta.org/go-hiking/hikes/spray-park-ipsut-pass-loop
Stafford Falls via Deer Creek,Mount Rainier Area,4.0,roundtrip,375.0,3250.0,5.0,1,46.8336,-121.53515,2020-10-31,14,https://www.wta.org/go-hiking/hikes/stafford-falls
Three Lakes via Laughingwater Creek,Mount Rainier Area,13.0,roundtrip,2800.0,5000.0,2.5,6,46.75178,-121.557136,2020-08-22,59,https://www.wta.org/go-hiking/hikes/three-lakes-via-laughingwater-creek
Skyscraper Pass,Mount Rainier Area,6.8,roundtrip,1700.0,7079.0,4.0,5,46.9146,-121.6423,2020-09-06,84,https://www.wta.org/go-hiking/hikes/skyscraper-pass
Silver Falls Loop,Mount Rainier Area,3.0,roundtrip,600.0,2300.0,3.71,24,46.73305,-121.569283333,2021-04-09,171,https://www.wta.org/go-hiking/hikes/silver-falls-loop
Silver Forest - Emmons Vista,Mount Rainier Area,2.5,roundtrip,325.0,6400.0,3.83,6,46.9140733402,-121.641842333,2020-08-31,27,https://www.wta.org/go-hiking/hikes/silver-forest-emmons-vista
Shriner Peak,Mount Rainier Area,8.5,roundtrip,3434.0,5834.0,3.6,15,46.8017666667,-121.555083333,2020-11-01,226,https://www.wta.org/go-hiking/hikes/shriner-peak
Paul Peak,Mount Rainier Area,6.2,roundtrip,900.0,3700.0,3.22,9,46.93495,-121.906816667,2020-12-05,56,https://www.wta.org/go-hiking/hikes/paul-peak
Palisades Lakes,Mount Rainier Area,7.0,roundtrip,1800.0,6150.0,3.74,23,46.91755,-121.5878,2020-09-07,211,https://www.wta.org/go-hiking/hikes/palisades-lakes
Observation Rock,Mount Rainier Area,13.0,roundtrip,3435.0,8364.0,3.0,2,46.9329165381,-121.865329742,2020-09-20,52,https://www.wta.org/go-hiking/hikes/observation-rock
Sunrise to Mystic Lake,Mount Rainier Area,18.0,roundtrip,1870.0,6800.0,3.12,8,46.9139052,-121.642342,2020-07-17,46,https://www.wta.org/go-hiking/hikes/mystic-lake
Naches Peak Loop,Mount Rainier Area,3.2,roundtrip,600.0,5850.0,4.53,57,46.86735,-121.517583333,2020-11-08,772,https://www.wta.org/go-hiking/hikes/naches-peak-loop
Knapsack Pass,Mount Rainier Area,2.9,roundtrip,1300.0,6200.0,3.17,6,46.933150977,-121.864471436,2020-10-03,93,https://www.wta.org/go-hiking/hikes/knapsack-pass
Emmons Moraine,Mount Rainier Area,3.0,roundtrip,900.0,5200.0,3.82,11,46.90215,-121.643683333,2020-09-09,109,https://www.wta.org/go-hiking/hikes/emmons-glacier-view
Deer Creek Falls,Mount Rainier Area,1.0,roundtrip,280.0,3200.0,3.12,8,46.8335333333,-121.535116667,2020-10-04,14,https://www.wta.org/go-hiking/hikes/deer-creek-falls
Dege Peak,Mount Rainier Area,4.0,roundtrip,600.0,7006.0,4.0,18,46.9146166667,-121.642333333,2020-09-07,111,https://www.wta.org/go-hiking/hikes/dege-peak
Crystal Lakes,Mount Rainier Area,6.0,roundtrip,2600.0,5828.0,4.33,39,46.9227333333,-121.533616667,2020-11-08,404,https://www.wta.org/go-hiking/hikes/crystal-lakes
American Lake,Mount Rainier Area,15.5,roundtrip,2759.0,5858.0,3.3,10,46.8694,-121.51965,2020-10-06,39,https://www.wta.org/go-hiking/hikes/american-lake
Summerland - Panhandle Gap,Mount Rainier Area,12.0,roundtrip,2950.0,6800.0,4.6,47,46.8883666667,-121.611033333,2020-11-02,563,https://www.wta.org/go-hiking/hikes/summerland-panhandle-gap
Glacier Basin Loop,Mount Rainier Area,11.5,roundtrip,3100.0,7400.0,5.0,2,46.9021,-121.6437,2020-11-01,41,https://www.wta.org/go-hiking/hikes/glacier-basin-loop
Skagit Peak,North Cascades,,,,,3.33,3,,,,0,https://www.wta.org/go-hiking/hikes/skagit-peak
Sol Duc River,Olympic Peninsula,,,,,3.0,5,47.9550706311,-123.835315704,2020-08-26,47,https://www.wta.org/go-hiking/hikes/sol-duc-river
Smokey Mountain,North Cascades,,,,,2.0,4,,,,0,https://www.wta.org/go-hiking/hikes/smokey-mountain
Smith Lake Primitive,Olympic Peninsula,,,,,3.25,4,,,2018-08-10,3,https://www.wta.org/go-hiking/hikes/smith-lake-primitive
Snowgrass Flat,South Cascades,8.2,roundtrip,1600.0,5800.0,4.35,23,46.4641833333,-121.519,2020-10-17,243,https://www.wta.org/go-hiking/hikes/snowgrass
South Fork Slate Creek,North Cascades,,,,,2.0,4,,,,0,https://www.wta.org/go-hiking/hikes/south-fork-slate-creek
Illahee Lake Trail,Puget Sound and Islands,0.5,roundtrip,,,0.0,0,47.6167230739,-122.025403976,2021-03-15,1,https://www.wta.org/go-hiking/hikes/illahee-lake-trail
Tumwater Botanical Area,Central Cascades,2.0,roundtrip,600.0,2268.0,5.0,2,47.6523703186,-120.725319498,2020-06-07,18,https://www.wta.org/go-hiking/hikes/tumwater-botanical-area
Candy Mountain Trail,Central Washington,3.6,roundtrip,555.0,1383.0,5.0,1,46.2463853541,-119.348380267,2020-01-19,13,https://www.wta.org/go-hiking/hikes/candy-mountain-trail
Puyallup Loop Trail,Puget Sound and Islands,5.5,roundtrip,,,4.0,6,47.18063,-122.316136,2021-03-13,35,https://www.wta.org/go-hiking/hikes/clarks-creek-park-loop
Scotchman Peak,Eastern Washington,7.0,roundtrip,3730.0,7009.0,5.0,2,48.1476701106,-116.079233587,2020-09-10,15,https://www.wta.org/go-hiking/hikes/scotchman-peak
Silver Creek Trail,South Cascades,4.5,one-way,1200.0,4080.0,0.0,0,46.699097,-121.813363,2020-07-06,2,https://www.wta.org/go-hiking/hikes/silver-creek-trail-258
Jack Creek Snowshoe,Snoqualmie Region,29.4,roundtrip,4400.0,4800.0,0.0,0,47.324602,-120.852786,2020-12-10,4,https://www.wta.org/go-hiking/hikes/jack-creek-snowshoe
Erinswood,Central Cascades,0.7,roundtrip,50.0,600.0,0.0,0,47.8188,-121.5539,2021-01-24,6,https://www.wta.org/go-hiking/hikes/erinswood
Dorado Needle,North Cascades,,,6280.0,8440.0,3.33,3,48.5497219,-121.138612,2018-05-25,3,https://www.wta.org/go-hiking/hikes/dorado-needle
Marymoor Park,Puget Sound and Islands,4.0,trails,,,3.0,3,47.6597206576,-122.118786063,2021-03-13,8,https://www.wta.org/go-hiking/hikes/marymoor-park
Burton Acres Park,Puget Sound and Islands,1.2,roundtrip,,,5.0,1,47.3935735554,-122.451167107,2021-03-06,5,https://www.wta.org/go-hiking/hikes/burton-acres-park-vashon
South Woods Park,Puget Sound and Islands,0.75,roundtrip,100.0,380.0,2.0,1,47.7378877243,-122.307378038,2018-01-06,2,https://www.wta.org/go-hiking/hikes/south-woods-park
Highlands Loop - Newcastle,Issaquah Alps,2.3,roundtrip,,,0.0,0,47.5203091061,-122.157465219,2021-01-17,2,https://www.wta.org/go-hiking/hikes/highlands-loop-newcastle
Whitehorse Trail,North Cascades,27.0,one-way,,,0.0,0,48.2588056943,-121.604578793,2021-01-07,3,https://www.wta.org/go-hiking/hikes/whitehorse-trail
Rainbow Falls Mist Trail,Central Cascades,0.25,roundtrip,30.0,1200.0,0.0,0,48.3422126637,-120.70126377,2020-10-09,9,https://www.wta.org/go-hiking/hikes/rainbow-falls-mist-trail
Newhalem Creek,North Cascades,9.0,roundtrip,800.0,2000.0,5.0,2,48.6613192391,-121.251983642,2021-04-13,21,https://www.wta.org/go-hiking/hikes/newhalem-creek-1
Rocky Creek Conservation Area,Puget Sound and Islands,2.5,roundtrip,,,0.0,0,47.3846,-122.741037,2020-08-15,1,https://www.wta.org/go-hiking/hikes/rocky-creek-conservation-area
Mount Stuart,Snoqualmie Region,11.1,roundtrip,6309.0,9416.0,5.0,2,47.4751179,-120.9031444,2020-10-08,53,https://www.wta.org/go-hiking/hikes/mount-stuart
Roughhouse Mountain,Central Cascades,,,,4760.0,0.0,0,47.35601,-120.67441,2017-04-30,1,https://www.wta.org/go-hiking/hikes/roughhouse-mountain
White River Falls State Park,Southwest Washington,0.5,roundtrip,250.0,1000.0,0.0,0,45.244154864,-121.097159163,2021-02-27,3,https://www.wta.org/go-hiking/hikes/white-river-falls-state-park
Scott Mountain,Puget Sound and Islands,,,,,0.0,0,,,2018-04-07,1,https://www.wta.org/go-hiking/hikes/scott-mountain
Jackson Creek,Eastern Washington,10.0,one-way,2600.0,5600.0,0.0,0,48.8407229651,-116.997906774,2020-09-01,4,https://www.wta.org/go-hiking/hikes/jackson-creek
Hughes Fork,Eastern Washington,10.0,one-way,3284.0,5500.0,0.0,0,48.8407875779,-116.998070126,2019-07-18,3,https://www.wta.org/go-hiking/hikes/hughes-fork
Wygant Peak Trail,Southwest Washington,8.0,roundtrip,2000.0,2200.0,0.0,0,45.7029,-121.6186,2018-03-26,1,https://www.wta.org/go-hiking/hikes/wygant-peak-trail
Hilburn Preserve,Olympic Peninsula,2.0,trails,,,0.0,0,47.2086766269,-123.137431741,2020-10-05,6,https://www.wta.org/go-hiking/hikes/hilburn-preserve
Garfield Nature Trail,Olympic Peninsula,0.7,roundtrip,,,0.0,0,47.050969,-122.918471,2020-03-22,1,https://www.wta.org/go-hiking/hikes/garfield-nature-trail
Nursery Peak,Snoqualmie Region,,,6967.0,,0.0,0,,,2016-05-30,2,https://www.wta.org/go-hiking/hikes/nursery-peak
Canyon Lake,North Cascades,5.4,roundtrip,200.0,2960.0,0.0,0,48.1084341429,-121.739480495,2020-12-08,4,https://www.wta.org/go-hiking/hikes/canyon-lake-2
Glacier View,Mount Rainier Area,4.4,roundtrip,950.0,5450.0,4.1,21,46.7920750866,-121.957121893,2020-12-31,162,https://www.wta.org/go-hiking/hikes/glacier-view
Friends Landing,Southwest Washington,1.7,roundtrip,15.0,20.0,0.0,0,46.9478583609,-123.636826035,2020-02-09,3,https://www.wta.org/go-hiking/hikes/friends-landing
Devore Creek,Central Cascades,15.0,one-way,5400.0,6600.0,2.75,4,48.3162309357,-120.68005085,2019-06-12,4,https://www.wta.org/go-hiking/hikes/devore-creek
Dirty Face Ridge,Olympic Peninsula,7.5,roundtrip,3000.0,6280.0,4.12,8,47.8857872421,-123.08983326,2020-11-08,48,https://www.wta.org/go-hiking/hikes/dirty-face-ridge
Dishpan Gap,Central Cascades,9.0,one-way,3200.0,5600.0,2.5,4,47.9769833333,-121.147216667,2020-10-09,33,https://www.wta.org/go-hiking/hikes/dishpan-gap
Domke Lake,Central Cascades,7.0,roundtrip,1100.0,2200.0,4.2,5,48.1906968,-120.6278045,2020-06-25,15,https://www.wta.org/go-hiking/hikes/domke-lake
Devils Gulch,Central Cascades,9.0,roundtrip,1100.0,2800.0,3.4,5,47.3126267,-120.4240034,2019-06-03,23,https://www.wta.org/go-hiking/hikes/devils-gulch
Dock Butte,North Cascades,4.4,roundtrip,1500.0,,4.07,14,48.6537597501,-121.783987999,2020-08-04,125,https://www.wta.org/go-hiking/hikes/dock-butte
Dodger Point,Olympic Peninsula,27.0,roundtrip,4983.0,5753.0,3.25,4,47.9609124,-123.5743783,2020-09-28,16,https://www.wta.org/go-hiking/hikes/dodger-point
Deception Creek,Central Cascades,11.0,roundtrip,1200.0,3150.0,3.8,20,47.71205,-121.193633333,2021-04-20,213,https://www.wta.org/go-hiking/hikes/deception-creek
Devil's Ridge,North Cascades,18.8,one-way,3100.0,7000.0,2.4,5,48.8395794894,-120.737424271,2019-07-11,30,https://www.wta.org/go-hiking/hikes/devils-ridge
Deception Falls National Recreation Area,Central Cascades,0.5,roundtrip,50.0,,3.57,14,47.7146,-121.193433333,2021-04-11,93,https://www.wta.org/go-hiking/hikes/deception-falls-nra
Crater Lakes,North Cascades,8.6,roundtrip,2220.0,6980.0,3.77,13,48.220383,-120.26785,2020-10-11,55,https://www.wta.org/go-hiking/hikes/crater-lakes
Crater Lake,Central Cascades,2.0,roundtrip,550.0,3500.0,3.83,6,47.6995957927,-121.533508301,2019-08-01,24,https://www.wta.org/go-hiking/hikes/crater-lake
Crowell Ridge,Eastern Washington,8.4,roundtrip,2700.0,6880.0,3.67,6,48.878267,-117.24485,2020-08-22,8,https://www.wta.org/go-hiking/hikes/crowell-ridge
Crooked Creek,Eastern Washington,17.0,one-way,3800.0,5700.0,3.0,4,46.1537600859,-117.651139314,2021-03-25,19,https://www.wta.org/go-hiking/hikes/crooked-creek
Crystal Peak,Mount Rainier Area,8.0,roundtrip,3100.0,6595.0,4.04,27,46.9227333333,-121.533616667,2020-11-08,230,https://www.wta.org/go-hiking/hikes/crystal-peaks
Cutthroat Lake,North Cascades,3.8,roundtrip,400.0,4900.0,3.89,18,48.5562989921,-120.654743537,2020-11-08,140,https://www.wta.org/go-hiking/hikes/cutthroat-lake
Cowiche Canyon,Central Washington,6.0,roundtrip,100.0,1500.0,3.57,14,46.6298801,-120.662945,2021-04-21,292,https://www.wta.org/go-hiking/hikes/cowiche-canyon
Coleman Ridge,North Cascades,27.2,roundtrip,3400.0,7400.0,3.0,5,,,2019-07-27,14,https://www.wta.org/go-hiking/hikes/coleman-ridge
Columbia Plateau Trail - Amber Lake,Eastern Washington,15.0,roundtrip,200.0,2300.0,2.25,4,47.3511886,-117.7106383,2015-04-13,3,https://www.wta.org/go-hiking/hikes/columbia-plateau-amber-lake
Copper Creek,Central Cascades,4.2,roundtrip,2300.0,5600.0,3.5,4,48.1988344414,-120.773252249,2018-10-17,5,https://www.wta.org/go-hiking/hikes/copper-creek
Cooney Lake,North Cascades,17.6,roundtrip,2850.0,7260.0,2.8,5,48.2217722327,-120.266867431,2020-10-04,55,https://www.wta.org/go-hiking/hikes/cooney-lake
Chewuch River Trail,North Cascades,37.4,roundtrip,3300.0,6900.0,3.5,4,48.826262,-120.019466,2020-08-09,41,https://www.wta.org/go-hiking/hikes/chewuch
Castle Pass,North Cascades,18.9,one-way,5400.0,6600.0,2.5,4,,,2019-06-29,14,https://www.wta.org/go-hiking/hikes/castle-pass
Cascade Rock,Olympic Peninsula,4.5,roundtrip,1800.0,1825.0,3.5,6,48.027467,-123.58825,2021-01-09,10,https://www.wta.org/go-hiking/hikes/cascade-rock
Carne Mountain,Central Cascades,7.3,roundtrip,3600.0,7085.0,4.12,17,48.0829166667,-120.834966667,2020-10-24,143,https://www.wta.org/go-hiking/hikes/carne-mountain
Chatter Creek,Central Cascades,11.0,roundtrip,3800.0,6400.0,4.0,4,47.6098,-120.892,2020-09-27,147,https://www.wta.org/go-hiking/hikes/chatter-creek
Carbon River to Ipsut Falls,Mount Rainier Area,10.8,roundtrip,,,3.5,8,46.9949015508,-121.912277482,2021-03-31,256,https://www.wta.org/go-hiking/hikes/carbon-river
Cedar Falls,North Cascades,3.5,roundtrip,500.0,3500.0,3.0,8,48.5791666667,-120.478683333,2021-04-17,81,https://www.wta.org/go-hiking/hikes/cedar-creek
Chamna Natural Preserve,Central Washington,3.8,roundtrip,30.0,350.0,3.25,8,46.2577130496,-119.286515862,2020-12-22,9,https://www.wta.org/go-hiking/hikes/chamna-natural-preserve
Cat Basin Primitive,Olympic Peninsula,5.0,one-way,1500.0,5500.0,2.75,4,47.9560190744,-123.837890625,2020-07-24,12,https://www.wta.org/go-hiking/hikes/cat-basin-primitive
Silver Lake Loop to McCullum Park,Puget Sound and Islands,,,,,2.0,1,,,2014-09-01,2,https://www.wta.org/go-hiking/hikes/silver-lake-loop-to-mc-cullum-park
UW Bothell-Cascadia Community College Wetlands,Puget Sound and Islands,1.0,roundtrip,,,1.0,1,,,2019-12-23,3,https://www.wta.org/go-hiking/hikes/uw-bothell-cascadia-community-college-wetlands
Robinswood Park,Puget Sound and Islands,,,,,0.0,0,,,2019-03-05,2,https://www.wta.org/go-hiking/hikes/robinswood-park-1
Columbia River Waterfront Renaissance Trail,Southwest Washington,,,,,0.0,0,45.6245730134,-122.663083076,2020-08-14,4,https://www.wta.org/go-hiking/hikes/columbia-river-waterfront-renaissance-trail
Oxbow Regional Park,Southwest Washington,,,,,0.0,0,,,2014-08-03,1,https://www.wta.org/go-hiking/hikes/oxbow-regional-park
Sahale Peak,North Cascades,,,,,0.0,0,48.4820250173,-121.080408096,2020-08-01,27,https://www.wta.org/go-hiking/hikes/sahale-peak
Mount Leona,Eastern Washington,6.0,roundtrip,1500.0,6474.0,0.0,0,48.765367,-118.487967,2017-07-02,3,https://www.wta.org/go-hiking/hikes/mount-leona
Colchuck Peak,Central Cascades,,,,,0.0,0,,,2020-06-27,25,https://www.wta.org/go-hiking/hikes/colchuck-peak
Stiletto Lake,North Cascades,12.6,roundtrip,3200.0,6810.0,0.0,0,,,2020-09-29,20,https://www.wta.org/go-hiking/hikes/stiletto-lake
Twin Lakes and Mount Pickett,Puget Sound and Islands,7.6,roundtrip,915.0,1749.0,0.0,0,48.655033,-122.818833,2020-03-15,10,https://www.wta.org/go-hiking/hikes/mount-pickett
Fortune Peak via Esmeralda Basin (Esmerelda),Snoqualmie Region,,,,,0.0,0,47.4291889,-120.9377177,2020-10-08,25,https://www.wta.org/go-hiking/hikes/fortune-peak-via-esmeralda-basin-esmerelda-1394
Razorback Mountain Snowshoe,North Cascades,,,,,0.0,0,,,2013-05-01,1,https://www.wta.org/go-hiking/hikes/razorback-mountain-snowshoe
Corax Peak,North Cascades,,,,,0.0,0,,,2011-08-13,1,https://www.wta.org/go-hiking/hikes/corax-peak
Cabinet Peak,North Cascades,,,,,0.0,0,48.6386743425,-120.851265639,2016-05-07,2,https://www.wta.org/go-hiking/hikes/cabinet-peak
Soda Springs,Mount Rainier Area,,,,,0.0,0,,,2018-07-11,5,https://www.wta.org/go-hiking/hikes/soda-springs-trail-975
The Eaglet,North Cascades,,,,,0.0,0,,,2014-03-23,5,https://www.wta.org/go-hiking/hikes/the-eaglet
Moss Lake Loop,Mount Rainier Area,0.75,roundtrip,,2400.0,0.0,0,47.0351251,-121.5613549,2021-03-22,11,https://www.wta.org/go-hiking/hikes/moss-lake-loop
Blowdown Mountain Road,Snoqualmie Region,,,,,1.67,3,47.530689993,-121.692735908,2021-03-12,34,https://www.wta.org/go-hiking/hikes/blowdown-mountain-road
Kangaroo Temple,North Cascades,,,,,2.0,1,48.5143301177,-120.642499924,2018-06-02,5,https://www.wta.org/go-hiking/hikes/kangaroo-temple
Mutton Mountain,Mount Rainier Area,,,,,0.0,0,,,2020-12-12,25,https://www.wta.org/go-hiking/hikes/mutton-mountain
Cripple Creek Falls,Snoqualmie Region,,,,,0.0,0,,,2012-03-17,1,https://www.wta.org/go-hiking/hikes/cripple-creek-falls
Fawn Lake,North Cascades,,,,,0.0,0,,,,0,https://www.wta.org/go-hiking/hikes/fawn-lake
Ashnola River,North Cascades,,,,,0.0,0,,,2020-07-27,3,https://www.wta.org/go-hiking/hikes/ashnola-river
Fox Lakes,North Cascades,,,,,0.0,0,,,2018-07-04,1,https://www.wta.org/go-hiking/hikes/fox-lakes
Methow Pass,North Cascades,,,,,0.0,0,,,2020-10-01,6,https://www.wta.org/go-hiking/hikes/methow-pass
Grindstone Mountain,Central Cascades,,,,,0.0,0,47.6070021379,-120.884542465,2020-09-15,20,https://www.wta.org/go-hiking/hikes/grindstone-mountain
English Boom,Puget Sound and Islands,,,,,0.0,0,48.262399,-122.438787,2021-01-16,7,https://www.wta.org/go-hiking/hikes/english-boom
Ivanhoe Lake,Snoqualmie Region,,,,,0.0,0,,,2020-08-10,15,https://www.wta.org/go-hiking/hikes/ivanhoe-lake
Lake Wilderness Park,Issaquah Alps,,,,,2.0,1,47.379870622,-122.040252686,2021-02-20,6,https://www.wta.org/go-hiking/hikes/lake-wilderness-park
Wenatchee River Road,Central Cascades,,,,,0.0,0,47.6875021302,-120.734879494,2020-05-23,3,https://www.wta.org/go-hiking/hikes/wenatchee-river-road
Hat Rock-Yellow Jacket Pass,South Cascades,5.5,roundtrip,1200.0,5200.0,3.0,4,46.4323,-121.7626,2019-07-07,4,https://www.wta.org/go-hiking/hikes/yellow-jacket
Wishpoosh Campground,Snoqualmie Region,,,,,1.75,4,,,,0,https://www.wta.org/go-hiking/hikes/wishpoosh-campground
Wobbly Creek,South Cascades,,,,,2.4,5,46.4392764631,-121.602859497,2019-06-14,2,https://www.wta.org/go-hiking/hikes/wobbly-creek
Wiseman Lake,North Cascades,,,,,3.25,4,,,,0,https://www.wta.org/go-hiking/hikes/wiseman-lake
Windy Lake,Snoqualmie Region,,,,,4.0,5,,,2020-08-31,9,https://www.wta.org/go-hiking/hikes/windy-lake
Wolf,Eastern Washington,,,,,1.25,4,,,,0,https://www.wta.org/go-hiking/hikes/wolf
Windy Pass - Mount Catherine Snowshoe,Snoqualmie Region,9.0,roundtrip,2300.0,5052.0,2.67,3,47.3961128,-121.4025239,2021-03-29,35,https://www.wta.org/go-hiking/hikes/windy-pass-mount-catherine-snowshoe
Windy Creek,Eastern Washington,,,,,3.0,4,,,2015-09-07,1,https://www.wta.org/go-hiking/hikes/windy-creek
Whitehorse Mountain,North Cascades,,,,,3.6,5,,,2021-04-22,19,https://www.wta.org/go-hiking/hikes/whitehorse-mountain
West Point,Snoqualmie Region,,,,,2.5,4,,,,0,https://www.wta.org/go-hiking/hikes/west-point
Whistler Basin,North Cascades,,,,,3.25,4,,,2020-07-10,4,https://www.wta.org/go-hiking/hikes/whistler-basin
Whatcom Pass,North Cascades,,,,,2.8,5,48.8750128681,-121.361726224,2020-08-26,18,https://www.wta.org/go-hiking/hikes/whatcom-pass
Whistler (Slide Chute),North Cascades,,,,,2.5,4,,,2013-09-18,5,https://www.wta.org/go-hiking/hikes/whistler-slide-chute
White River Snowshoe,Mount Rainier Area,4.0,roundtrip,400.0,3200.0,2.5,2,46.9021,-121.6437,2021-03-24,15,https://www.wta.org/go-hiking/hikes/white-river-snowshoe
White Lakes,North Cascades,,,,,3.75,4,,,,0,https://www.wta.org/go-hiking/hikes/white-lakes
Whistling Pig Meadow,Central Cascades,11.4,roundtrip,1300.0,5650.0,1.75,4,47.844,-120.602533333,2016-07-06,3,https://www.wta.org/go-hiking/hikes/whistling-pig-meadow
West Bank,North Cascades,,,,,2.5,4,,,2015-05-31,1,https://www.wta.org/go-hiking/hikes/west-bank
Wenatchee Ridge Snowshoe (Lake Wenatchee Area),Central Cascades,11.0,roundtrip,2000.0,4000.0,3.0,2,47.8507855,-120.9339069,2021-03-10,13,https://www.wta.org/go-hiking/hikes/wenatchee-ridge-snowshoe
Whiskey Bend to Low Divide,Olympic Peninsula,,,,,2.5,6,47.964333992,-123.584426902,2020-08-21,23,https://www.wta.org/go-hiking/hikes/whiskey-bend-to-low-divide
Wilson Creek,Central Washington,2.0,roundtrip,100.0,2100.0,3.5,4,,,,0,https://www.wta.org/go-hiking/hikes/wilson-creek-1
Willaby Creek,Olympic Peninsula,,,,,3.4,5,47.4670312,-123.8454552,2017-06-19,5,https://www.wta.org/go-hiking/hikes/willaby-creek
Winchester Wasteway,Central Washington,,,,,3.4,5,,,2010-04-11,1,https://www.wta.org/go-hiking/hikes/winchester-wasteway
Wildside Connector,Issaquah Alps,,,,,2.75,4,,,2021-04-05,13,https://www.wta.org/go-hiking/hikes/wildside-connector
Willow Creek,North Cascades,,,,,3.25,4,,,2019-05-06,1,https://www.wta.org/go-hiking/hikes/willow-creek
Uno Peak,Central Cascades,,,,,3.33,3,,,2020-07-08,1,https://www.wta.org/go-hiking/hikes/uno-peak
Upper Big Creek,South Cascades,,,,,3.75,4,46.73604,-121.970311,2020-05-20,10,https://www.wta.org/go-hiking/hikes/upper-big-creek
Two Little Lakes,Central Cascades,,,,,1.33,3,,,,0,https://www.wta.org/go-hiking/hikes/two-little-lakes
Upper Lake Creek,South Cascades,,,,,3.67,3,,,2020-08-19,17,https://www.wta.org/go-hiking/hikes/upper-lake-creek
Upper Icicle Creek,Central Cascades,10.0,roundtrip,400.0,3200.0,3.25,4,47.6124666667,-120.949916667,2020-08-23,67,https://www.wta.org/go-hiking/hikes/upper-icicle-creek
Wahluke Lake,Central Washington,4.0,roundtrip,,,3.0,4,,,,0,https://www.wta.org/go-hiking/hikes/wahluke-lake
Franklin Falls,Snoqualmie Region,2.0,roundtrip,400.0,2600.0,4.11,99,47.4131077959,-121.44276917,2021-03-29,1122,https://www.wta.org/go-hiking/hikes/franklin-falls
Green Mountain - Davis Trail,Olympic Peninsula,4.0,roundtrip,120.0,800.0,0.0,0,47.5517885662,-122.826697826,2021-04-16,4,https://www.wta.org/go-hiking/hikes/green-mountain-davis-trail-1
Spokane Gulch,North Cascades,5.0,roundtrip,1100.0,3100.0,5.0,1,48.5971882771,-120.400348752,2021-04-23,25,https://www.wta.org/go-hiking/hikes/spokane-gulch
Ollalie Creek Camp,Mount Rainier Area,5.6,roundtrip,1600.0,3940.0,2.67,3,46.7562166667,-121.56275,2020-08-09,11,https://www.wta.org/go-hiking/hikes/ollalie-creek-camp
Faraway Rock,Mount Rainier Area,1.3,roundtrip,300.0,5220.0,2.5,4,46.7688666667,-121.724033333,2020-08-08,17,https://www.wta.org/go-hiking/hikes/faraway-rock
Carbon River Rain Forest Nature Trail,Mount Rainier Area,0.6,roundtrip,20.0,1780.0,3.4,5,46.994935,-121.916906,2020-09-09,17,https://www.wta.org/go-hiking/hikes/carbon-river-rain-forest-nature-trail
Lakeridge Park,Puget Sound and Islands,1.0,roundtrip,144.0,220.0,3.5,2,47.5085939616,-122.248236919,2020-11-08,10,https://www.wta.org/go-hiking/hikes/lakeridge-park-dead-horse-canyon
Northern State Ghost Town,North Cascades,5.0,roundtrip,50.0,182.0,4.0,12,48.525500298,-122.194557991,2021-04-17,111,https://www.wta.org/go-hiking/hikes/northern-state-ghost-town
Mount St. Helens - Monitor Ridge,South Cascades,10.0,roundtrip,4500.0,8365.0,4.45,38,46.1460954,-122.1834833,2020-11-02,483,https://www.wta.org/go-hiking/hikes/mount-st-helens-monitor-ridge
Earth Sanctuary,Puget Sound and Islands,2.0,roundtrip,50.0,164.0,0.0,0,48.01081,-122.49428,2021-02-08,3,https://www.wta.org/go-hiking/hikes/earth-sanctuary
Honey Dew Creek,Puget Sound and Islands,2.0,roundtrip,150.0,,3.67,3,47.5155178056,-122.184327842,2021-03-07,8,https://www.wta.org/go-hiking/hikes/honey-dew-creek
South Kitsap Regional Park,Puget Sound and Islands,,,,,0.0,0,47.522146,-122.614276,2021-03-27,3,https://www.wta.org/go-hiking/hikes/south-kitsap-regional-park
Lost Lake,Central Cascades,6.0,roundtrip,512.0,962.0,0.0,0,47.949847,-121.888791,2021-04-12,6,https://www.wta.org/go-hiking/hikes/lost-lake-3
Latourell Falls,Southwest Washington,3.0,roundtrip,540.0,600.0,3.0,5,45.538717,-122.2177,2021-01-04,15,https://www.wta.org/go-hiking/hikes/latourell-falls
Mount Rose,Olympic Peninsula,6.4,roundtrip,3500.0,4301.0,3.73,30,47.4955666667,-123.267583333,2021-04-18,418,https://www.wta.org/go-hiking/hikes/mount-rose
Cable Line Trail,Issaquah Alps,3.0,roundtrip,2022.0,2522.0,3.77,22,47.5296042492,-121.984376907,2021-04-23,345,https://www.wta.org/go-hiking/hikes/cable-line-trail
Meadowdale Beach Park - Lunds Gulch,Puget Sound and Islands,2.5,roundtrip,425.0,425.0,3.69,32,47.8558333333,-122.317516667,2021-03-16,217,https://www.wta.org/go-hiking/hikes/lunds-gulch-meadowdale-county-park
Fort Ebey State Park,Puget Sound and Islands,4.0,roundtrip,520.0,570.0,4.22,9,48.2225568947,-122.763977051,2021-01-30,70,https://www.wta.org/go-hiking/hikes/fort-ebey-state-park
Old Robe Canyon,North Cascades,2.4,roundtrip,350.0,1050.0,3.5,38,48.110067484,-121.855802536,2021-04-18,299,https://www.wta.org/go-hiking/hikes/old-robe-canyon
Sumas Mountain - Gold Mine Trail,Puget Sound and Islands,,,,,3.4,5,,,2021-01-21,73,https://www.wta.org/go-hiking/hikes/gold-mine-trail
Prince Creek,Central Cascades,,,,,3.75,4,48.1451878686,-120.494895279,2020-06-27,11,https://www.wta.org/go-hiking/hikes/prince-creek
Fort Spokane,Eastern Washington,,,,,0.0,0,47.9046033,-118.3091542,2017-08-27,2,https://www.wta.org/go-hiking/hikes/fort-spokane
Backbone Ridge,South Cascades,6.6,roundtrip,1750.0,2900.0,2.5,6,46.6642261233,-121.600338221,2018-08-01,9,https://www.wta.org/go-hiking/hikes/backbone-ridge
Middle Fork Connector Trail,Snoqualmie Region,0.5,one-way,40.0,1150.0,0.0,0,47.548450292598176,-121.53687715530396,2021-04-13,26,https://www.wta.org/go-hiking/hikes/middle-fork-connector-trail
Dash Point State Park,Puget Sound and Islands,19.0,trails,,,3.5,10,47.3182697855,-122.407380753,2021-04-08,99,https://www.wta.org/go-hiking/hikes/dash-point-state-park
Otto Preserve,Puget Sound and Islands,2.0,trails,150.0,250.0,2.0,1,48.698083,-122.674533,2021-01-15,9,https://www.wta.org/go-hiking/hikes/otto-preserve
Deadfall,Olympic Peninsula,7.6,roundtrip,2240.0,4273.0,3.1,10,47.8926333333,-122.984816667,2021-01-15,46,https://www.wta.org/go-hiking/hikes/deadfall
South Tiger Mountain Loop,Issaquah Alps,8.6,roundtrip,1550.0,2028.0,2.8,5,47.4432431429,-121.976222992,2021-03-15,65,https://www.wta.org/go-hiking/hikes/south-tiger-mountain-loop
Twin Falls,Snoqualmie Region,2.6,roundtrip,500.0,1000.0,4.14,201,47.442340473437085,-121.68534278869629,2021-04-22,1101,https://www.wta.org/go-hiking/hikes/twin-falls-state-park
Amabilis Mountain Snowshoe,Snoqualmie Region,9.5,roundtrip,2100.0,4570.0,3.25,4,47.2964913139,-121.288890839,2021-04-13,143,https://www.wta.org/go-hiking/hikes/amabilis-mountain-snowshoe
Cora Lake,Mount Rainier Area,6.0,roundtrip,400.0,3800.0,4.11,9,46.6779,-121.8946,2020-12-30,52,https://www.wta.org/go-hiking/hikes/cora-lake
Lower Wildcat Lake,Snoqualmie Region,,,,,3.0,3,47.4453,-121.4235,2020-08-14,29,https://www.wta.org/go-hiking/hikes/lower-wildcat-lake
Jumpoff Joe Lookout,Central Washington,10.0,roundtrip,2531.0,5749.0,4.0,5,46.6216190739,-121.062469482,2020-11-14,10,https://www.wta.org/go-hiking/hikes/jumpoff-joe-lookout
Pine Creek,South Cascades,2.5,roundtrip,170.0,3130.0,4.2,5,46.1547456799,-122.103338242,2020-06-29,3,https://www.wta.org/go-hiking/hikes/jackpine-shelter
Hall - Grassy Divide,Eastern Washington,5.1,one-way,,,0.0,0,48.7970266186,-117.132024765,2017-07-01,1,https://www.wta.org/go-hiking/hikes/hall-grassy-divide
Lost Lake,South Cascades,16.2,roundtrip,2400.0,5200.0,0.0,0,46.601678,-121.511248,2020-10-30,29,https://www.wta.org/go-hiking/hikes/lost-lake-78
Margaret Lake,Snoqualmie Region,6.0,roundtrip,1500.0,5100.0,3.34,32,47.364183,-121.358167,2021-04-01,297,https://www.wta.org/go-hiking/hikes/margaret-lake
Escondido Lake,Snoqualmie Region,,,,,2.25,4,47.487,-121.2014,2020-08-24,12,https://www.wta.org/go-hiking/hikes/escondido-lake
Domerie Divide Trail,Snoqualmie Region,,,,,3.33,3,47.2653630407,-121.164004505,2020-08-29,65,https://www.wta.org/go-hiking/hikes/1308.2
Mission Peak,Central Washington,4.0,roundtrip,840.0,6876.0,3.5,2,47.2974656532,-120.443029236,2020-09-20,12,https://www.wta.org/go-hiking/hikes/mission-peak
West Fork Foss River and Lakes,Central Cascades,14.6,roundtrip,3300.0,4900.0,4.21,42,47.6348833333,-121.303566667,2021-04-19,533,https://www.wta.org/go-hiking/hikes/west-fork-foss-river-and-lakes
Lodge Lake,Snoqualmie Region,3.0,roundtrip,500.0,3500.0,3.55,22,47.427333,-121.420433,2021-03-31,240,https://www.wta.org/go-hiking/hikes/lodge-lake
Hawley Cove Park,Puget Sound and Islands,0.25,one-way,,,3.0,2,47.628387258,-122.50256896,2020-11-13,2,https://www.wta.org/go-hiking/hikes/hawley-cove-park
Lake Sammamish State Park,Puget Sound and Islands,1.5,trails,,,2.0,1,47.5590023437,-122.062717426,2021-04-11,12,https://www.wta.org/go-hiking/hikes/lake-sammamish-state-park
Glacier Lake,South Cascades,6.0,roundtrip,1634.0,2905.0,2.67,12,46.54565,-121.62215,2020-11-02,44,https://www.wta.org/go-hiking/hikes/glacier-lake
Baker Hot Springs,North Cascades,,,,,4.17,6,48.8464316,-121.6924453,2021-03-27,27,https://www.wta.org/go-hiking/hikes/baker-hot-springs
Pearrygin Creek,North Cascades,7.4,roundtrip,2060.0,6644.0,3.0,3,48.530861,-120.080701,2019-07-05,2,https://www.wta.org/go-hiking/hikes/pearrygin-creek
Foggy Dew Ridge,North Cascades,12.0,roundtrip,3040.0,7340.0,0.0,0,48.179364958157066,-120.25334358215332,2020-10-04,5,https://www.wta.org/go-hiking/hikes/foggy-dew-ridge
Weowna Park,Puget Sound and Islands,3.5,roundtrip,600.0,320.0,4.6,5,47.60354440516357,-122.11232900619507,2021-03-24,54,https://www.wta.org/go-hiking/hikes/weona-park-bellevue
Turtleback Mountain Preserve: Turtlehead Summit,Puget Sound and Islands,5.7,roundtrip,1295.0,1025.0,5.0,2,48.66721485333346,-122.94707536697388,2021-03-28,22,https://www.wta.org/go-hiking/hikes/turtleback-mountain-preserve-turtlehead-summit
Rock Mountain via Snowy Creek,Central Cascades,9.0,roundtrip,3600.0,,4.43,7,47.807966690726836,-120.99689483642577,2020-10-03,119,https://www.wta.org/go-hiking/hikes/rock-mountain-via-snowy-creek
Poe Mountain via Little Wenatchee Trailhead,Central Cascades,6.0,roundtrip,3000.0,6015.0,0.0,0,47.91718333661826,-121.08754277229308,2020-08-08,38,https://www.wta.org/go-hiking/hikes/poe-mountain-via-little-wenatchee-campground
Nason Ridge Snowshoe,Central Cascades,3.6,roundtrip,750.0,2720.0,3.0,1,47.79548496236464,-120.71599245071411,2021-03-10,22,https://www.wta.org/go-hiking/hikes/nason-ridge-snowshoe
Mirror and Cottonwood Lakes,Snoqualmie Region,2.2,roundtrip,870.0,4200.0,4.21,24,47.346020018662216,-121.42441749572752,2021-04-15,318,https://www.wta.org/go-hiking/hikes/mirror-lake-and-cottonwood-lakes
Crescent Lake,Central Cascades,12.0,roundtrip,3732.0,5489.0,2.67,3,47.790994554179484,-120.8850574493408,2020-07-17,3,https://www.wta.org/go-hiking/hikes/crescent-lake
Council Bluff,South Cascades,3.2,roundtrip,950.0,5180.0,2.83,6,46.26299021390041,-121.63185954093935,2020-07-27,17,https://www.wta.org/go-hiking/hikes/council-bluff
Cedar Flats Nature Trail,Southwest Washington,1.1,roundtrip,67.0,1380.0,2.5,4,46.11195973175013,-122.01844364404677,2020-07-19,7,https://www.wta.org/go-hiking/hikes/cedar-flat
Cedar Butte,Snoqualmie Region,3.5,roundtrip,900.0,1880.0,3.33,49,47.432510960272026,-121.7663025856018,2021-04-18,476,https://www.wta.org/go-hiking/hikes/cedar-butte
Shoreview and Boeing Creek Parks,Puget Sound and Islands,1.9,trails,280.0,440.0,3.0,4,47.75228744873445,-122.36611962318419,2021-01-10,26,https://www.wta.org/go-hiking/hikes/boeing-creek-park
Iron Bear - Teanaway Ridge,Central Cascades,6.5,roundtrip,1900.0,5489.0,4.06,34,47.35572394710773,-120.71762323379515,2021-04-22,452,https://www.wta.org/go-hiking/hikes/iron-bear
Wing Lake,North Cascades,,,,,3.0,4,48.5162,-120.7354,2020-10-31,61,https://www.wta.org/go-hiking/hikes/wing-lake
Wallaby Peak,North Cascades,6.0,roundtrip,2900.0,7995.0,0.0,0,48.526877,-120.6505831,2020-08-14,5,https://www.wta.org/go-hiking/hikes/wallaby-peak-7995
Washington Pass Overlook,North Cascades,0.25,roundtrip,61.0,5581.0,3.5,10,48.52453804,-120.65813385,2020-10-17,57,https://www.wta.org/go-hiking/hikes/washington-pass-overlook
Fourth of July Pass via Panther Creek,North Cascades,11.5,roundtrip,2000.0,3500.0,3.0,4,48.7060293151,-120.973205566,2020-11-29,41,https://www.wta.org/go-hiking/hikes/fourth-of-july-pass-via-panther-creek
Cascade Pass and Sahale Arm,North Cascades,12.0,roundtrip,4000.0,7570.0,4.43,63,48.4754592445,-121.075002037,2020-10-22,455,https://www.wta.org/go-hiking/hikes/sahale-arm
Cascade Pass,North Cascades,7.0,roundtrip,1800.0,5392.0,4.12,32,48.4754449693,-121.075056419,2020-11-21,262,https://www.wta.org/go-hiking/hikes/cascade-pass
Kloshe Nanitch,Olympic Peninsula,6.4,roundtrip,2200.0,3160.0,3.67,9,48.068539,-124.1083,2021-04-14,46,https://www.wta.org/go-hiking/hikes/kloshe-nanitch
Heybrook Lookout,Central Cascades,2.6,roundtrip,850.0,1700.0,3.63,68,47.8083666667,-121.5352,2021-04-18,702,https://www.wta.org/go-hiking/hikes/heybrook-lookout
Goldmyer Hot Springs,Snoqualmie Region,24.0,roundtrip,,,4.0,9,47.5001019533,-121.446695924,2021-04-11,126,https://www.wta.org/go-hiking/hikes/goldmyer-hot-springs
Cedar Falls Snowshoe,North Cascades,9.6,roundtrip,1350.0,3570.0,4.5,4,48.5803562,-120.48204,2021-04-17,9,https://www.wta.org/go-hiking/hikes/cedar-falls-snowshoe
Evergreen Arboretum and Gardens,Puget Sound and Islands,,,,,3.0,1,48.0149392772,-122.203934491,2021-01-17,21,https://www.wta.org/go-hiking/hikes/everett-arboretum-grand-ave-park-evcc-legion-park
Yakima Area Arboretum and Botanical Garden,Central Washington,,,,,0.0,0,46.587904115,-120.473520756,2021-03-31,4,https://www.wta.org/go-hiking/hikes/yakima-area-arboretum-and-botanical-garden
Irene Rinehart Riverfront Park,Central Washington,2.2,trails,,1500.0,0.0,0,46.9784516658,-120.567317605,2021-03-28,9,https://www.wta.org/go-hiking/hikes/irene-rinehart-riverfront-park
Rhododendron Species Botanical Garden,Puget Sound and Islands,,,,,0.0,0,47.295792,-122.301062,2020-02-22,1,https://www.wta.org/go-hiking/hikes/pacific-bonsai-museum-and-rhododendron-species-botanical-garden
Bob Heirman Wildlife Preserve,Puget Sound and Islands,3.0,roundtrip,82.0,92.0,2.0,6,47.8615214121,-122.093224526,2021-03-25,31,https://www.wta.org/go-hiking/hikes/bob-hierman-preserve
Titlow Park,Puget Sound and Islands,2.0,trails,,,3.0,1,47.247787,-122.549911,2020-07-11,4,https://www.wta.org/go-hiking/hikes/titlow-park
Saint Edward State Park,Puget Sound and Islands,3.0,roundtrip,400.0,400.0,3.9,31,47.7328581471,-122.258262634,2021-04-24,183,https://www.wta.org/go-hiking/hikes/north-trail-saint-edward-state-park
Buck Creek Falls Loop,South Cascades,3.0,one-way,770.0,1090.0,0.0,0,45.8172343,-121.5428706,2019-11-11,1,https://www.wta.org/go-hiking/hikes/buck-creek-falls-loop
Umtanum Creek Canyon,Central Washington,6.5,roundtrip,500.0,1800.0,3.61,28,46.855401998,-120.483301936,2021-03-21,330,https://www.wta.org/go-hiking/hikes/umtanum-creek-canyon
Woodard Bay Conservation Area,Olympic Peninsula,3.5,trails,,,3.27,11,47.1268525411,-122.853779001,2021-03-26,42,https://www.wta.org/go-hiking/hikes/woodard-bay-conservation-area
West Hylebos Wetlands,Puget Sound and Islands,1.2,roundtrip,,70.0,3.33,9,47.2897865312,-122.329303622,2020-11-28,20,https://www.wta.org/go-hiking/hikes/west-hylebos-wetlands
Nisqually Vista Loop,Mount Rainier Area,1.1,roundtrip,200.0,5400.0,3.67,9,46.7848,-121.74145,2021-03-27,76,https://www.wta.org/go-hiking/hikes/nisqually-vista-loop
Surprise and Glacier Lakes,Central Cascades,11.0,roundtrip,2700.0,4900.0,3.36,39,47.7078,-121.1567,2021-01-22,448,https://www.wta.org/go-hiking/hikes/surprise-lake-1
Rim Trail,South Cascades,0.9,roundtrip,100.0,3620.0,3.0,2,45.8812852261,-121.986522675,2010-08-21,1,https://www.wta.org/go-hiking/hikes/rim-trail-202
Observation Peak,Southwest Washington,5.0,roundtrip,500.0,4207.0,3.89,9,45.9499,-122.0401,2020-08-18,53,https://www.wta.org/go-hiking/hikes/observation-peak
Dry Creek,South Cascades,8.4,roundtrip,350.0,1500.0,4.0,4,45.8819,-121.980067,2020-02-15,13,https://www.wta.org/go-hiking/hikes/dry-creek-2
Siouxon Creek,Southwest Washington,13.8,roundtrip,635.0,1697.0,3.64,11,45.94065,-122.229433,2020-08-01,49,https://www.wta.org/go-hiking/hikes/siouxon
Telford Recreation Area,Central Washington,,,,,0.0,0,47.6944544031,-118.407640457,2021-03-29,5,https://www.wta.org/go-hiking/hikes/telford-recreation-area
Master Link Trail,Issaquah Alps,,,,,0.0,0,,,2021-03-08,14,https://www.wta.org/go-hiking/hikes/master-link-trail
Yakima Sportsman State Park,Central Washington,2.0,roundtrip,,,4.0,2,46.5918841656,-120.453298911,2021-04-13,15,https://www.wta.org/go-hiking/hikes/yakima-sportsman-state-park
Spring Lake/Lake Desire Park - Echo Mountain,Puget Sound and Islands,3.0,roundtrip,,900.0,3.78,9,47.436935971,-122.094038095,2021-03-31,87,https://www.wta.org/go-hiking/hikes/spring-lake-lake-desire-park-echo-mountain
William O. Douglas Wilderness,Central Washington,52.0,roundtrip,3600.0,,0.0,0,,,2018-06-20,3,https://www.wta.org/go-hiking/hikes/william-o-douglas-wilderness
Rock Creek Sno-Park,Mount Rainier Area,10.0,trails,2500.0,,0.0,0,46.8933402802,-120.969386101,2018-12-26,1,https://www.wta.org/go-hiking/hikes/rock-creek-sno-park
Green Lantern Trail,Puget Sound and Islands,2.8,roundtrip,33.0,463.0,2.83,6,47.8894689182,-122.207035921,2021-01-14,31,https://www.wta.org/go-hiking/hikes/green-lantern-trail
Baldy Mountain,Central Washington,5.0,roundtrip,1972.0,3212.0,4.2,5,46.7951974734,-120.45836091,2021-04-17,105,https://www.wta.org/go-hiking/hikes/baldy-mountain-1
Yelm-Tenino Trail,Olympic Peninsula,29.0,roundtrip,,,0.0,0,46.9419695629,-122.608481348,2020-06-17,11,https://www.wta.org/go-hiking/hikes/yelm-tenino-trail
Saltwater State Park,Puget Sound and Islands,2.0,trails,,,3.5,2,47.3729598331,-122.322405794,2021-04-04,19,https://www.wta.org/go-hiking/hikes/saltwater-state-park
Elliott Bay Trail,Puget Sound and Islands,10.0,roundtrip,,20.0,3.67,3,47.603889685,-122.338347145,2021-04-18,22,https://www.wta.org/go-hiking/hikes/elliott-bay-trail
Golf Course Trail - Newcastle,Issaquah Alps,1.3,one-way,,,0.0,0,47.5412516429,-122.159471512,,0,https://www.wta.org/go-hiking/hikes/golf-course-trail-newcastle
Midtown Park,Mount Rainier Area,,,,,0.0,0,47.1657925059,-122.152411938,2020-04-11,1,https://www.wta.org/go-hiking/hikes/midtown-park
Castle Rock Riverfront Trail,Southwest Washington,3.4,roundtrip,,150.0,2.0,1,46.2648954026,-122.900912371,2020-08-26,5,https://www.wta.org/go-hiking/hikes/castle-rock-riverfront-trail
Mount Baldy,Snoqualmie Region,8.0,roundtrip,3000.0,5107.0,4.0,13,47.2676108872,-121.174049377,2021-04-14,124,https://www.wta.org/go-hiking/hikes/mount-baldy
Pulaski Tunnel Trail,Eastern Washington,4.0,roundtrip,800.0,3720.0,5.0,2,47.4586182656,-115.936017036,2020-08-11,16,https://www.wta.org/go-hiking/hikes/pulaksi-tunnel-trail
Ashford Trail,Puget Sound and Islands,0.25,one-way,,,0.0,0,47.6893341727,-122.112178802,2020-05-09,1,https://www.wta.org/go-hiking/hikes/ashford-trail
Frenchman's Bar,Southwest Washington,2.5,one-way,,210.0,3.0,1,45.6854718,-122.7614295,,0,https://www.wta.org/go-hiking/hikes/frenchmans-bar
Gypsy Peak,Eastern Washington,16.0,roundtrip,1750.0,7309.0,0.0,0,48.9457243716,-117.151851654,2019-07-31,3,https://www.wta.org/go-hiking/hikes/gypsy-peak
Buck Creek-Morrison Creek-Wicky Creek Loop,South Cascades,8.0,roundtrip,4100.0,1800.0,2.0,1,46.058292,-121.540966,2020-05-29,3,https://www.wta.org/go-hiking/hikes/buck-creek-morrison-creek-wicky-creek-loop-hike
Starvation Creek Falls,Southwest Washington,0.2,roundtrip,,,0.0,0,45.6881999485,-121.690807046,2019-04-19,3,https://www.wta.org/go-hiking/hikes/starvation-creek-falls
Antoine Peak - Robbins Road Snowshoe Loop,Eastern Washington,2.0,roundtrip,250.0,,0.0,0,47.7213556,-117.1817399,2020-03-26,5,https://www.wta.org/go-hiking/hikes/antoine-peak-robbins-road-loop
Spruce Nature Trail (Hoh),Olympic Peninsula,1.2,roundtrip,,,3.5,6,47.8536009,-123.9512268,2020-11-11,40,https://www.wta.org/go-hiking/hikes/spruce-nature-trail-hoh
Thirteenmile via Bear Pot Trailhead,Eastern Washington,9.2,roundtrip,1800.0,4885.0,0.0,0,48.4813436265,-118.728059158,2020-06-16,8,https://www.wta.org/go-hiking/hikes/thirteenmile-via-bear-pot-trailhead
West Seattle Bridge Trail,Puget Sound and Islands,2.0,roundtrip,20.0,50.0,0.0,0,47.572730693,-122.339955101,2020-07-12,3,https://www.wta.org/go-hiking/hikes/west-seattle-bridge-trail
Sinister Peak,North Cascades,,,,8440.0,0.0,0,48.29987,-121.009831,2014-07-04,1,https://www.wta.org/go-hiking/hikes/sinister-peak
Dome Peak,North Cascades,,,8132.0,8920.0,0.0,0,48.301798,-121.031772,2014-07-04,1,https://www.wta.org/go-hiking/hikes/dome-peak
Cappy's Trails,Olympic Peninsula,,,,,0.0,0,48.1346902551,-122.783889771,,0,https://www.wta.org/go-hiking/hikes/cappys-trails
North Star Mountain,Central Cascades,25.0,roundtrip,4500.0,8096.0,0.0,0,48.1984,-120.7746,2018-08-11,1,https://www.wta.org/go-hiking/hikes/north-star-mountain
Langille Ridge Trail,South Cascades,,,,,2.5,2,46.3660613871,-121.845846176,2015-09-21,8,https://www.wta.org/go-hiking/hikes/langille-ridge-trail
Mickinnick Trail,Eastern Washington,7.0,roundtrip,2150.0,4300.0,0.0,0,48.3108352161,-116.568421195,2017-11-25,2,https://www.wta.org/go-hiking/hikes/mickinnick-trail
Japanese Peace Garden,Eastern Washington,0.2,trails,,,0.0,0,47.126997,-119.272793,,0,https://www.wta.org/go-hiking/hikes/japanese-peace-garden
Redmond Powerline Trail,Puget Sound and Islands,6.7,one-way,548.0,574.0,2.5,2,47.6982094005,-122.082009315,2021-03-06,13,https://www.wta.org/go-hiking/hikes/redmond-power-line-trail
Pyramid Creek Camp,Mount Rainier Area,6.6,roundtrip,1060.0,3880.0,4.0,4,46.7496666667,-121.81065,2020-10-01,11,https://www.wta.org/go-hiking/hikes/pyramid-creek-camp
Paradise River,Mount Rainier Area,,,,,3.5,4,46.750065041,-121.812329292,2020-09-28,8,https://www.wta.org/go-hiking/hikes/paradise-river
Paul Peak Snowshoe,Mount Rainier Area,5.6,roundtrip,1800.0,4800.0,3.5,2,46.9361705,-121.9033019,2020-05-07,5,https://www.wta.org/go-hiking/hikes/paul-peak-snowshoe
Northern Loop,Mount Rainier Area,,,,,4.0,7,46.9030158,-121.6299192,2020-09-05,101,https://www.wta.org/go-hiking/hikes/northern-loop
Mowich River,Mount Rainier Area,7.0,roundtrip,2400.0,5000.0,3.0,5,46.9327,-121.863616667,2020-08-16,13,https://www.wta.org/go-hiking/hikes/mowich-river
Mount Rainier Summit,Mount Rainier Area,,,,,3.57,7,46.8498606899,-121.761474609,2020-08-11,33,https://www.wta.org/go-hiking/hikes/mount-rainier
Marten Lake,Snoqualmie Region,8.8,roundtrip,2217.0,3000.0,3.36,14,47.5596601,-121.5327761,2021-04-01,116,https://www.wta.org/go-hiking/hikes/marten-lake
Miller Creek Falls,South Cascades,,,,,3.25,4,48.7067833333,-120.918616667,,0,https://www.wta.org/go-hiking/hikes/miller-creek-falls
Longmire To Reflection Lakes,Mount Rainier Area,,,,,2.33,6,,,2020-09-04,13,https://www.wta.org/go-hiking/hikes/longmire-to-reflection-lakes
Lena Lake - Valley of Silent Men Snowshoe,Olympic Peninsula,10.0,roundtrip,2000.0,2800.0,3.2,5,47.6008706,-123.1455854,2021-02-06,14,https://www.wta.org/go-hiking/hikes/lena-lake-valley-of-silent-men-snowshoe
Lake West,Mount Rainier Area,,,,,3.0,4,,,2019-06-01,2,https://www.wta.org/go-hiking/hikes/lake-west
Kloochman Rock,South Cascades,,,,,3.5,4,46.6306410596,-121.081322193,2019-08-11,7,https://www.wta.org/go-hiking/hikes/kloochman-rock
Huffman Peak,Southwest Washington,13.6,roundtrip,3990.0,3830.0,3.5,4,45.9465,-122.17785,2020-08-01,9,https://www.wta.org/go-hiking/hikes/huffman-peak
Horseshoe Ridge,Southwest Washington,11.9,roundtrip,3300.0,3475.0,2.6,5,45.9465,-122.17785,2017-06-03,8,https://www.wta.org/go-hiking/hikes/horseshoe-ridge
Grand Pass,Olympic Peninsula,,,,,3.71,7,47.9179546328,-123.375662327,2020-09-19,54,https://www.wta.org/go-hiking/hikes/grand-pass
Glacier Vista Snowshoe,Mount Rainier Area,3.0,roundtrip,700.0,6300.0,3.0,6,46.7522507603,-121.789535524,2021-03-30,48,https://www.wta.org/go-hiking/hikes/glacier-vista-snowshoe
Elk Mountain,Olympic Peninsula,,,,,3.83,6,47.9183841378,-123.382258415,2020-10-01,18,https://www.wta.org/go-hiking/hikes/elk-mountain
East Creek,North Cascades,,,,,4.0,5,48.6675248124,-120.873119752,2020-10-07,29,https://www.wta.org/go-hiking/hikes/east-creek
Eagle and Chutla Peaks Trail Snowshoe,Mount Rainier Area,7.0,roundtrip,2900.0,5600.0,1.67,3,,,2017-07-06,4,https://www.wta.org/go-hiking/hikes/eagle-and-chutla-peaks-trail-snowshoe
Eagle Pass,Central Cascades,,,,,5.0,4,,,2020-07-24,3,https://www.wta.org/go-hiking/hikes/eagle-pass
East Side Road,Issaquah Alps,,,,,2.25,4,,,2017-05-26,4,https://www.wta.org/go-hiking/hikes/east-side-road
Cox Valley,Olympic Peninsula,,,,,2.5,4,47.9185279445,-123.389682769,2019-07-21,2,https://www.wta.org/go-hiking/hikes/cox-valley
Crater Mountain,North Cascades,,,,,2.8,5,48.7079338533,-120.977093428,2020-10-03,33,https://www.wta.org/go-hiking/hikes/crater-mountain
Camp Muir Snowshoe,Mount Rainier Area,10.0,roundtrip,4400.0,10000.0,3.5,4,46.78622,-121.7353718,2021-04-18,72,https://www.wta.org/go-hiking/hikes/camp-muir-snowshoe
Cabinet Creek,North Cascades,,,,,2.75,4,48.6391,-120.8515,2020-10-04,6,https://www.wta.org/go-hiking/hikes/cabinet-creek
Busywild Overlook Snowshoe,Mount Rainier Area,6.5,roundtrip,900.0,3500.0,2.67,3,46.773542897,-121.947362423,2020-12-24,3,https://www.wta.org/go-hiking/hikes/busywild-overlook-snowshoe
Beaver Valley,Issaquah Alps,,,,,2.8,5,,,2013-06-07,2,https://www.wta.org/go-hiking/hikes/beaver-valley
South Fork Agnes Creek,Central Cascades,,,,,3.0,4,48.3796086,-120.8320279,2017-08-18,10,https://www.wta.org/go-hiking/hikes/south-fork-agnes-creek
West Tiger 2,Issaquah Alps,7.8,roundtrip,2300.0,2757.0,2.25,4,47.5305361,-121.9791497,2021-04-22,207,https://www.wta.org/go-hiking/hikes/west-tiger-2
Wahpenayo Peak,Mount Rainier Area,,,,,3.6,5,46.746473,-121.7940139,2018-08-13,4,https://www.wta.org/go-hiking/hikes/wahpenayo-peak
Westcrest Park,Puget Sound and Islands,2.0,roundtrip,220.0,340.0,3.0,2,47.521120595,-122.342848777,2020-02-01,3,https://www.wta.org/go-hiking/hikes/westcrest-park
Lewisville Regional Park,Southwest Washington,2.8,one-way,,,0.0,0,45.818985,-122.545152,2018-05-10,2,https://www.wta.org/go-hiking/hikes/lewisville-regional-park
North Shorewood Park,Puget Sound and Islands,,,,,0.0,0,47.513851,-122.36319,,0,https://www.wta.org/go-hiking/hikes/north-shorewood-park
Seminary Hill Natural Area,Southwest Washington,4.5,roundtrip,320.0,500.0,0.0,0,46.7133556668,-122.944753915,2020-05-12,14,https://www.wta.org/go-hiking/hikes/seminary-hill
Lewis Creek Park,Issaquah Alps,2.3,trails,,,0.0,0,47.550727,-122.125709,2020-12-17,3,https://www.wta.org/go-hiking/hikes/lewis-creek-park
Wenatchee Guard Station,Eastern Washington,5.8,one-way,1435.0,5480.0,5.0,1,46.1217565,-117.3795779,2021-01-29,7,https://www.wta.org/go-hiking/hikes/wenatchee-guard-station
Goode Mountain,North Cascades,37.0,roundtrip,8400.0,9200.0,0.0,0,48.48,-120.91,2015-09-26,1,https://www.wta.org/go-hiking/hikes/goode-mountain
Big Creek Trail,Snoqualmie Region,9.0,roundtrip,2400.0,3700.0,0.0,0,47.1844,-121.1373,2018-08-25,2,https://www.wta.org/go-hiking/hikes/big-creek-trail
Lookout Tree,North Cascades,0.6,roundtrip,200.0,1200.0,0.0,0,,,2021-03-20,10,https://www.wta.org/go-hiking/hikes/lookout-tree-trail-783.1
Anderson Island,Puget Sound and Islands,2.5,roundtrip,50.0,50.0,0.0,0,47.1497352969,-122.723829746,2020-05-31,6,https://www.wta.org/go-hiking/hikes/anderson-island-andys-marine-park-jacobs-point
Jensen Family Forest Park,Puget Sound and Islands,0.7,roundtrip,,,0.0,0,48.9339139594,-122.62786753,2020-05-23,2,https://www.wta.org/go-hiking/hikes/jensen-family-forest-park
Copper City Ghost Town,Mount Rainier Area,0.5,roundtrip,27.0,4076.0,0.0,0,46.8689061408,-121.293280944,2020-06-25,7,https://www.wta.org/go-hiking/hikes/copper-city-ghost-town
Bordeaux Ghost Town,Olympic Peninsula,,,,,3.5,2,,,2020-05-24,38,https://www.wta.org/go-hiking/hikes/bordeaux-ghost-town
East Wing Trail,Olympic Peninsula,2.0,roundtrip,,,5.0,1,47.3893377077,-122.674847245,2020-08-27,5,https://www.wta.org/go-hiking/hikes/east-wing-trail
Arlington Airport Trail,Puget Sound and Islands,6.0,trails,,115.0,3.5,2,48.1665433915,-122.150888443,2021-02-28,13,https://www.wta.org/go-hiking/hikes/arlington-airport-trail
Lake Lois Habitat Reserve,Olympic Peninsula,0.25,roundtrip,,,0.0,0,47.0395358952,-122.800499631,2020-11-27,2,https://www.wta.org/go-hiking/hikes/lake-lois-habitat-reserve
Moran State Park - Cold Springs and North Trail Loop to Mount Constitution,Puget Sound and Islands,11.4,roundtrip,2940.0,2409.0,3.0,1,48.656117,-122.855183,2021-03-04,14,https://www.wta.org/go-hiking/hikes/moran-state-park-cold-springs-north-trail-loop
Pend Oreille County Park,Eastern Washington,7.0,roundtrip,,2780.0,0.0,0,48.0808401639,-117.324038744,2020-11-13,11,https://www.wta.org/go-hiking/hikes/pend-oreille-county-park
Yellow Lake,Issaquah Alps,1.25,roundtrip,20.0,420.0,3.0,1,47.5697218101,-122.015447617,2019-05-25,7,https://www.wta.org/go-hiking/hikes/yellow-lake
Kelsey Creek Park Nature Trails,Puget Sound and Islands,1.7,roundtrip,194.0,,3.5,2,47.605133,-122.165522,2021-01-29,6,https://www.wta.org/go-hiking/hikes/kelsey-creek-park-nature-trails
Burch Mountain,Central Cascades,,,,,0.0,0,,,2016-03-25,1,https://www.wta.org/go-hiking/hikes/burch-mountain-1
Pearrygin Lake Sno-Park,North Cascades,1.5,roundtrip,,,0.0,0,48.4883397803,-120.147557259,2021-01-29,3,https://www.wta.org/go-hiking/hikes/lloyd-ranch-winter-trail-system
Apple Capital Recreation Loop Trail,Central Washington,10.0,roundtrip,600.0,692.0,0.0,0,47.4626689393,-120.324153676,2020-05-06,3,https://www.wta.org/go-hiking/hikes/apple-capital-recreation-loop-trail
Luna Peak,North Cascades,36.5,roundtrip,8009.0,8285.0,0.0,0,48.8783896808,-121.252683029,2020-09-12,10,https://www.wta.org/go-hiking/hikes/luna-peak
Glines Canyon Overlook Trail,Olympic Peninsula,2.0,roundtrip,50.0,450.0,0.0,0,48.0019241685,-123.600352047,2021-04-15,10,https://www.wta.org/go-hiking/hikes/glines-canyon-overlook-trail
Del Fairfax Preserve,Puget Sound and Islands,1.2,roundtrip,,,0.0,0,48.2717881879,-122.724075569,2021-02-14,3,https://www.wta.org/go-hiking/hikes/del-fairfax-preserve
Little Creek Trail,Issaquah Alps,1.2,roundtrip,315.0,900.0,0.0,0,47.5354601613,-122.128726822,2021-03-14,8,https://www.wta.org/go-hiking/hikes/little-creek
Fairhaven Park,Puget Sound and Islands,3.0,trails,,,2.0,1,,,2020-08-02,4,https://www.wta.org/go-hiking/hikes/fairhaven-park
Hall Peak,North Cascades,,,,5452.0,0.0,0,48.059946,-121.54044,2017-07-04,1,https://www.wta.org/go-hiking/hikes/hall-peak
Hungry Mountain,Eastern Washington,8.4,roundtrip,2180.0,5955.0,0.0,0,,,2020-08-22,2,https://www.wta.org/go-hiking/hikes/hungry-mountain
Little Annapurna,Central Cascades,7.3,one-way,5018.0,8440.0,5.0,2,47.5279815214,-120.820684433,2020-11-08,71,https://www.wta.org/go-hiking/hikes/little-annapurna
Thorp Mountain via Knox Creek,Snoqualmie Region,4.4,roundtrip,1734.0,5854.0,2.9,10,47.356623585,-121.182499799,2020-11-09,83,https://www.wta.org/go-hiking/hikes/knox-creek
Lake Laura Backdoor,Snoqualmie Region,3.0,roundtrip,1000.0,4800.0,3.0,3,47.3905548378,-121.347444225,2020-10-04,74,https://www.wta.org/go-hiking/hikes/lake-laura-backdoor
Lake Ann,Snoqualmie Region,8.2,roundtrip,2200.0,6500.0,3.6,10,47.4369141182,-120.937259567,2020-10-27,127,https://www.wta.org/go-hiking/hikes/lake-ann-1
Lake Isabel,Central Cascades,7.0,roundtrip,,,2.93,14,47.8485642479,-121.614588127,2021-04-05,75,https://www.wta.org/go-hiking/hikes/lake-isabel
Kodak Peak,Central Cascades,18.0,roundtrip,420.0,6121.0,4.0,2,47.9183926763,-121.087639332,2020-09-29,23,https://www.wta.org/go-hiking/hikes/kodak-peak
Klickitat Trail,South Cascades,38.2,roundtrip,1000.0,5500.0,4.6,5,46.466557,-121.693352,2020-08-10,22,https://www.wta.org/go-hiking/hikes/klickitat
Kraule - Sunnyside,North Cascades,6.0,roundtrip,300.0,,0.0,0,,,2021-03-24,3,https://www.wta.org/go-hiking/hikes/kraule-sunnyside
Keystone Ridge,Central Cascades,8.4,roundtrip,,,0.0,0,47.6474613509,-120.231722832,2019-05-10,6,https://www.wta.org/go-hiking/hikes/keystone-ridge
Lake Kelcema Snowshoe,North Cascades,10.0,roundtrip,1600.0,3182.0,3.0,3,48.0848738732,-121.552305222,2021-03-04,82,https://www.wta.org/go-hiking/hikes/kelcema-lake-snowshoe
Kendall Peak Lakes,Snoqualmie Region,7.0,roundtrip,2030.0,4500.0,2.0,4,47.428518883,-121.376083374,2021-04-17,48,https://www.wta.org/go-hiking/hikes/kendall-peak-lakes
Kendall Peak,Snoqualmie Region,9.2,roundtrip,2800.0,5784.0,3.4,5,47.4278549982,-121.413345337,2021-01-23,124,https://www.wta.org/go-hiking/hikes/kendall-peak
Lake Donald,Central Cascades,,,,,3.0,4,47.7330890614,-120.891838074,2020-10-06,13,https://www.wta.org/go-hiking/hikes/lake-donald-central-cascades-stevens-pass-west
Mount Hardy,North Cascades,4.68,roundtrip,4299.0,7924.0,0.0,0,,,2015-05-02,1,https://www.wta.org/go-hiking/hikes/mount-hardy
Pigeon Creek Trail,Puget Sound and Islands,3.5,roundtrip,,,3.0,4,47.9807858679,-122.216848683,2021-03-16,15,https://www.wta.org/go-hiking/hikes/pigeon-creek-trail
Caribou Ridge Hike,Eastern Washington,4.6,one-way,2200.0,4400.0,0.0,0,47.6076531499,-116.669043303,2018-08-08,1,https://www.wta.org/go-hiking/hikes/caribou-ridge-hike-79
Grand Valley via Grand Pass Trail,Olympic Peninsula,12.0,roundtrip,4070.0,6450.0,4.33,3,47.9182978536,-123.3822155,2020-09-02,33,https://www.wta.org/go-hiking/hikes/grand-valley-via-grand-pass
Keeney Park,Puget Sound and Islands,0.2,roundtrip,,,0.0,0,47.6192108801,-122.110247612,2021-02-27,5,https://www.wta.org/go-hiking/hikes/keeney-park
Maple Creek Loop Trail,North Cascades,1.4,roundtrip,250.0,850.0,3.0,1,48.9267888195,-122.079316378,2021-04-10,13,https://www.wta.org/go-hiking/hikes/maple-creek-loop-trail
Granite Creek,Snoqualmie Region,5.0,roundtrip,2600.0,4600.0,0.0,0,47.161729,-121.091218,2021-02-07,9,https://www.wta.org/go-hiking/hikes/granite-creek-1
Windy Trail,South Cascades,1.0,one-way,200.0,4300.0,3.5,2,46.2499,-122.1361,2020-08-05,10,https://www.wta.org/go-hiking/hikes/windy-trail
Post Falls Community Forest and Q'emiln Park,Eastern Washington,,,,,0.0,0,47.69586978,-116.973152161,2020-11-27,4,https://www.wta.org/go-hiking/hikes/post-falls-community-forest
Alpine Lookout,Central Cascades,10.0,roundtrip,2600.0,6235.0,3.56,9,47.7922666667,-120.79445,2020-11-08,105,https://www.wta.org/go-hiking/hikes/alpine-lakes-high-route
Ala Spit,Puget Sound and Islands,1.0,roundtrip,10.0,,3.5,2,48.3986648327,-122.586479187,2021-03-07,17,https://www.wta.org/go-hiking/hikes/ala-spit
Adams Creek Meadows,South Cascades,8.0,roundtrip,2300.0,6840.0,3.89,9,46.2884022679,-121.552768573,2017-07-15,9,https://www.wta.org/go-hiking/hikes/adams-creek-meadows
Alki Crest,Mount Rainier Area,,,,,2.5,2,46.9819269,-121.942102,2021-01-15,13,https://www.wta.org/go-hiking/hikes/alki-crest
Aldrich Butte,Southwest Washington,3.6,roundtrip,1129.0,3400.0,0.0,0,45.6554,-121.9607,2017-01-29,4,https://www.wta.org/go-hiking/hikes/aldrich-butte
Alger Alp (South Route),Puget Sound and Islands,4.0,roundtrip,1000.0,1350.0,3.18,11,48.6199738872,-122.33997345,2021-02-06,86,https://www.wta.org/go-hiking/hikes/alger-alp-south-route
Rattlesnake Trail,Mount Rainier Area,6.0,roundtrip,300.0,3000.0,0.0,0,46.7955592297,-121.100913515,2019-07-19,3,https://www.wta.org/go-hiking/hikes/rattlesnake-trail-1114
Granite Mountain (Mount Baker),North Cascades,,,,,0.0,0,47.3978489694,-121.486569643,2018-09-27,15,https://www.wta.org/go-hiking/hikes/granite-mountain-mount-baker
Kendall Katwalk,Snoqualmie Region,12.0,roundtrip,2600.0,5400.0,4.22,77,47.42785,-121.41348,2021-04-18,809,https://www.wta.org/go-hiking/hikes/kendall-katwalk
Alderbrook Nature Trails,Olympic Peninsula,4.6,trails,600.0,460.0,4.5,2,47.3383282972,-123.070907593,2021-04-18,10,https://www.wta.org/go-hiking/hikes/alderbrook-nature-trails
Black River Riparian Forest,Puget Sound and Islands,,,,,3.0,2,47.4734251236,-122.239039242,2021-03-17,8,https://www.wta.org/go-hiking/hikes/black-river-riparian-forest
Camp Brown,Snoqualmie Region,0.45,roundtrip,,,0.0,0,47.5125196237,-121.621184349,2021-04-11,9,https://www.wta.org/go-hiking/hikes/camp-brown
Pinnacle Saddle,Mount Rainier Area,2.5,roundtrip,1000.0,5920.0,4.37,19,46.7682833333,-121.731416667,2020-10-17,167,https://www.wta.org/go-hiking/hikes/pinnacle-saddle
Panorama Point Snowshoe,Mount Rainier Area,5.0,roundtrip,1900.0,7070.0,3.88,8,46.7828868,-121.728427,2021-04-11,120,https://www.wta.org/go-hiking/hikes/panorama-point-snowshoe
Bench and Snow Lakes,Mount Rainier Area,2.5,roundtrip,610.0,4725.0,4.21,19,46.7678497298,-121.707621217,2020-10-12,174,https://www.wta.org/go-hiking/hikes/bench-and-snow-lakes
Indian Bar - Summerland Traverse,Mount Rainier Area,34.0,roundtrip,4400.0,6800.0,5.0,2,46.765637,-121.634902,2020-08-07,13,https://www.wta.org/go-hiking/hikes/indian-bar-summerland-traverse
Indian Bar - Cowlitz Divide,Mount Rainier Area,14.6,roundtrip,3130.0,5900.0,3.88,8,46.7653,-121.63615,2020-10-04,89,https://www.wta.org/go-hiking/hikes/indian-bar
High Lakes Loop,Mount Rainier Area,3.0,roundtrip,600.0,5425.0,3.78,9,46.7680954895,-121.72882172,2021-03-15,35,https://www.wta.org/go-hiking/hikes/high-lakes-loop
Unicorn Peak,Mount Rainier Area,4.8,roundtrip,2397.0,6971.0,3.0,5,46.7677501229,-121.707126618,2020-07-20,15,https://www.wta.org/go-hiking/hikes/unicorn-creek-1
Stevens Canyon Waterfalls,Mount Rainier Area,8.0,roundtrip,1675.0,3750.0,3.0,8,46.7601666667,-121.639066667,2020-09-05,44,https://www.wta.org/go-hiking/hikes/stevens-canyon-waterfalls
Berkeley Park,Mount Rainier Area,7.7,roundtrip,1700.0,6800.0,3.67,15,46.914617,-121.642333,2020-09-03,157,https://www.wta.org/go-hiking/hikes/berkeley-park
Mount Shuksan,North Cascades,,,,9127.0,5.0,1,48.849580446,-121.686286926,2020-09-09,32,https://www.wta.org/go-hiking/hikes/mt-shuksan
Mount Ann,North Cascades,10.5,roundtrip,4000.0,,0.0,0,48.8532541,-121.6817814,2015-05-15,3,https://www.wta.org/go-hiking/hikes/mount-ann
Fire and Ice Trail,North Cascades,0.5,roundtrip,100.0,4400.0,3.6,5,48.857865,-121.6822288,2020-08-23,15,https://www.wta.org/go-hiking/hikes/fire-and-ice-trail
Artist Ridge - Huntoon Point,North Cascades,1.2,roundtrip,200.0,5150.0,3.82,11,48.8466827,-121.6910452,2021-04-06,144,https://www.wta.org/go-hiking/hikes/artist-ridge
Table Mountain,North Cascades,2.6,roundtrip,725.0,5700.0,4.42,12,48.8468416825,-121.692559379,2021-03-11,139,https://www.wta.org/go-hiking/hikes/table-mountain
Wild Goose,North Cascades,1.4,roundtrip,1100.0,5100.0,3.25,4,48.8471076258,-121.692852974,2020-09-12,37,https://www.wta.org/go-hiking/hikes/wild-goose
Cady Creek,Central Cascades,5.2,roundtrip,1300.0,4300.0,2.8,5,47.858612281243865,-120.96367835998535,2020-09-28,42,https://www.wta.org/go-hiking/hikes/cady-creek
Multnomah Falls,Southwest Washington,1.2,roundtrip,100.0,611.0,3.5,8,45.5773564571,-122.116723261,2021-01-04,32,https://www.wta.org/go-hiking/hikes/multnomah-falls
Anacortes Community Forest Lands - Eastern Fringe Forest Loop,Puget Sound and Islands,3.7,roundtrip,520.0,550.0,0.0,0,48.473376498523656,-122.60514736175537,2020-09-01,2,https://www.wta.org/go-hiking/hikes/anacortes-community-forest-lands-eastern-fringe-forest-loop
Buck Mountain Snowshoe,North Cascades,11.6,roundtrip,2635.0,6135.0,4.0,3,48.39239590517128,-119.84882354736328,2020-10-17,7,https://www.wta.org/go-hiking/hikes/buck-mountain-snowshoe
Mountain Climbers Trail,South Cascades,6.8,roundtrip,2600.0,8300.0,5.0,1,46.1535057389,-121.424943805,2014-09-01,1,https://www.wta.org/go-hiking/hikes/mountain-climbers-trail
North Creek Park Boardwalk,Puget Sound and Islands,2.0,roundtrip,,,3.14,7,47.8327599334,-122.219037931,2021-02-14,109,https://www.wta.org/go-hiking/hikes/north-creek-park-boardwalk
Monte Cristo Ghost Town,North Cascades,8.0,roundtrip,700.0,2800.0,3.84,25,48.0269777,-121.4446967,2020-11-14,333,https://www.wta.org/go-hiking/hikes/monte-cristo-143
Schaefer Lake,Central Cascades,9.0,roundtrip,3200.0,5195.0,3.75,8,47.9529166667,-120.7726,2020-10-17,52,https://www.wta.org/go-hiking/hikes/schaefer-lake
Pete's Creek - Colonel Bob Peak,Olympic Peninsula,8.2,roundtrip,3500.0,4510.0,4.56,25,47.4572166667,-123.73175,2021-02-27,137,https://www.wta.org/go-hiking/hikes/colonel-bob
Basin Lake,South Cascades,2.5,one-way,580.0,6480.0,2.2,5,46.9368725565,-121.47424221,2020-07-25,29,https://www.wta.org/go-hiking/hikes/basin-lake
Marcus Trail,Eastern Washington,3.5,one-way,1760.0,6440.0,0.0,0,48.6968135892,-118.535732031,2019-05-28,1,https://www.wta.org/go-hiking/hikes/marcus-trail
Denman Falls,Mount Rainier Area,15.5,roundtrip,,,0.0,0,46.7354,-121.8566,2016-06-17,2,https://www.wta.org/go-hiking/hikes/denman-falls
Dorothy Cleveland Trail,Puget Sound and Islands,3.0,roundtrip,,,3.0,1,47.914501207,-122.386322021,2021-04-04,6,https://www.wta.org/go-hiking/hikes/dorothy-cleveland-trail
Dirty Face Lookout and Peak,Central Cascades,9.0,roundtrip,3950.0,5989.0,3.82,17,47.8379166667,-120.797633333,2020-11-01,191,https://www.wta.org/go-hiking/hikes/dirtyface-lookout-site
Copper Mountain,Olympic Peninsula,5.0,roundtrip,4400.0,,0.0,0,,,2020-10-03,7,https://www.wta.org/go-hiking/hikes/copper-mountain-1
Copper Creek Hut Snowshoe,Mount Rainier Area,8.8,roundtrip,1040.0,4200.0,3.75,4,46.7784440225,-122.023301125,2021-03-20,82,https://www.wta.org/go-hiking/hikes/copper-creek-hut-snowshoe
Coyote Wall,Southwest Washington,,,,,2.75,4,45.6999615435,-121.403386742,2020-12-12,24,https://www.wta.org/go-hiking/hikes/coyote-wall
Courtney Peak,North Cascades,,,,8392.0,4.0,1,48.2604187,-120.4431484,2020-09-05,9,https://www.wta.org/go-hiking/hikes/courtney-peak
Craggy Peak,South Cascades,11.0,roundtrip,1800.0,5275.0,3.17,6,46.21335,-121.916333333,2015-08-25,3,https://www.wta.org/go-hiking/hikes/craggy-peak
Cramer Lake Snowshoe,South Cascades,7.0,roundtrip,840.0,5080.0,4.0,2,46.6548564733,-121.361589432,2020-02-20,5,https://www.wta.org/go-hiking/hikes/cramer-lake-snowshoe
Crystal Mountain Resort,Mount Rainier Area,2.0,roundtrip,,,0.0,0,46.935667,-121.4742568,2020-08-23,24,https://www.wta.org/go-hiking/hikes/crystal-mountain-resort
Crestwoods Park Trail,Puget Sound and Islands,,,,,3.0,1,47.693139413,-122.197283115,2020-08-14,5,https://www.wta.org/go-hiking/hikes/crestwood-park-trail
Corral Pass Snowshoe,Mount Rainier Area,11.5,roundtrip,2800.0,5700.0,0.0,0,46.9994559361,-121.528358459,2021-02-20,9,https://www.wta.org/go-hiking/hikes/corral-pass-snowshoe
Curry Preserve,Puget Sound and Islands,1.0,roundtrip,,,0.0,0,48.7308025043,-122.693353415,2021-01-15,8,https://www.wta.org/go-hiking/hikes/curry-preserve
Cowen and Ravenna Parks,Puget Sound and Islands,4.5,roundtrip,115.0,200.0,2.67,3,47.6720343318,-122.314352989,2020-11-14,19,https://www.wta.org/go-hiking/hikes/cowen-and-ravenna-parks
Crofton Butte,South Cascades,4.0,roundtrip,600.0,4750.0,2.75,8,46.1216,-121.561216667,2019-07-27,3,https://www.wta.org/go-hiking/hikes/crofton-butte
Cowboy Mountain,Central Cascades,,,,5853.0,2.67,3,,,2019-05-19,2,https://www.wta.org/go-hiking/hikes/cowboy-mtn-5853
County Line,Snoqualmie Region,10.0,roundtrip,1875.0,5700.0,3.2,5,47.3592707056,-120.691927671,2020-09-20,119,https://www.wta.org/go-hiking/hikes/county-line
Cussed Hollow,Southwest Washington,5.0,roundtrip,600.0,3400.0,5.0,4,46.1731166667,-121.925683333,2011-07-26,1,https://www.wta.org/go-hiking/hikes/cussed-hollow
Cowlitz Trail,South Cascades,8.6,roundtrip,,6340.0,3.75,4,46.704195,-121.480653,2020-07-27,22,https://www.wta.org/go-hiking/hikes/cowlitz-trail
Cougar Lakes,Mount Rainier Area,12.0,roundtrip,1700.0,5400.0,2.57,7,46.8306,-121.377066667,2020-08-28,40,https://www.wta.org/go-hiking/hikes/cougar-lake
Snowgrass - Cispus Basin - Nannie Ridge Loop,South Cascades,19.6,roundtrip,3000.0,6400.0,3.86,7,46.4586735198,-121.530761719,2020-09-08,87,https://www.wta.org/go-hiking/hikes/cispus-basin-cispus-pass
Holden Village to High Bridge,Central Cascades,32.0,roundtrip,,,0.0,0,48.2001297007,-120.789696202,2019-07-15,5,https://www.wta.org/go-hiking/hikes/cloudy-pass
Clay Pit Road,Issaquah Alps,3.0,roundtrip,,,2.75,4,47.5301166,-122.1029636,2021-02-13,70,https://www.wta.org/go-hiking/hikes/clay-pit-road
China Creek,Issaquah Alps,0.8,one-way,,,3.4,5,47.5333493713,-122.170479298,2021-04-05,7,https://www.wta.org/go-hiking/hikes/china-creek
Cooper River,Snoqualmie Region,7.8,roundtrip,400.0,2800.0,3.36,11,47.4093375782,-121.106669768,2021-01-23,133,https://www.wta.org/go-hiking/hikes/cooper-river
Coleman Weedpatch,South Cascades,9.0,trails,1900.0,5712.0,2.6,5,46.4229333333,-121.500983333,2020-07-07,17,https://www.wta.org/go-hiking/hikes/coleman-weedpatch
Larrabee State Park - Chuckanut Ridge Trail,Puget Sound and Islands,10.4,roundtrip,,1900.0,4.0,3,48.7007643,-122.4892558,2021-04-12,64,https://www.wta.org/go-hiking/hikes/chuckanut-ridge-trail
Chopper Peak,Central Washington,3.0,roundtrip,1440.0,2400.0,3.0,1,47.3993042282,-120.395672321,2021-03-20,9,https://www.wta.org/go-hiking/hikes/chopper-peak
Cleveland Mountain,Central Cascades,12.0,roundtrip,,5280.0,1.0,1,47.6936746,-121.4266504,2017-07-29,4,https://www.wta.org/go-hiking/hikes/cleveland-mountain
Clackamas Mountain,Eastern Washington,10.0,roundtrip,,,4.33,3,48.6805119979,-118.906853199,2020-07-17,7,https://www.wta.org/go-hiking/hikes/clackamas-mountain-trail
North Bonneville Heritage Trails,Southwest Washington,12.0,roundtrip,20.0,40.0,0.0,0,45.6455441,-121.9572544,2021-04-18,13,https://www.wta.org/go-hiking/hikes/fort-cascades-loop
Finner Creek,Central Cascades,,,,,0.0,0,47.9515886,-120.7692429,2020-06-07,2,https://www.wta.org/go-hiking/hikes/finner-creek
Esmeralda Peak (Esmerelda),Snoqualmie Region,,,,6362.0,4.0,3,47.4272743349,-120.949687958,2020-06-27,23,https://www.wta.org/go-hiking/hikes/esmerelda-peak
Eruption Trail,South Cascades,0.5,roundtrip,25.0,4200.0,3.0,5,46.2765199,-122.2164843,2020-09-29,17,https://www.wta.org/go-hiking/hikes/eruption-trail
Far Country,Issaquah Alps,0.6,roundtrip,,,2.88,8,47.5255086213,-122.143336348,2021-04-13,79,https://www.wta.org/go-hiking/hikes/far-country
Feryn Ranch Conservation Area,Eastern Washington,1.0,roundtrip,,,5.0,1,47.7773173214,-117.280181274,2020-04-19,6,https://www.wta.org/go-hiking/hikes/feryn-ranch-conservation-area
Dragontail Peak,Central Cascades,13.5,roundtrip,5833.0,8840.0,5.0,3,47.5278656103,-120.820512772,2020-11-01,77,https://www.wta.org/go-hiking/hikes/dragontail-peak
East Ridge Trail,Issaquah Alps,2.8,roundtrip,,,3.88,8,47.5090429676,-122.032810897,2021-03-27,52,https://www.wta.org/go-hiking/hikes/east-ridge
Dry Creek,South Cascades,7.4,roundtrip,2800.0,3800.0,3.0,7,46.562401265,-121.708860397,2020-12-12,10,https://www.wta.org/go-hiking/hikes/dry-creek-1
Larrabee State Park - Double Diamond Trail,Puget Sound and Islands,,,,,2.0,3,48.6488171211,-122.488760948,2021-04-06,29,https://www.wta.org/go-hiking/hikes/double-diamond-trail
Eightmile Mountain,Central Cascades,,,,,0.0,0,47.5359208186,-120.814032555,2020-06-13,4,https://www.wta.org/go-hiking/hikes/eightmile-mountain
East Side Trail,Issaquah Alps,2.6,roundtrip,,,3.2,5,47.510624612,-122.043393552,2021-03-27,56,https://www.wta.org/go-hiking/hikes/east-side
East Fork,Issaquah Alps,1.4,roundtrip,,,3.5,4,47.5281716874,-122.095982283,2021-02-24,28,https://www.wta.org/go-hiking/hikes/east-fork
Eagle Lake Fisherman's Trail,Central Cascades,5.0,roundtrip,712.0,3888.0,4.18,11,47.7780401115,-121.384763718,2021-02-20,116,https://www.wta.org/go-hiking/hikes/eagle-lake-fishermans-trail
Ahtanum State Forest - Eagle's Nest,South Cascades,0.1,roundtrip,17.0,6183.0,2.0,1,46.5110187637,-121.175615522,2020-05-22,4,https://www.wta.org/go-hiking/hikes/eagles-nest
Edgar Rock,Mount Rainier Area,3.5,roundtrip,900.0,,3.2,10,46.9197545116,-121.056040961,2021-04-11,28,https://www.wta.org/go-hiking/hikes/edgar-rock
East Crater,South Cascades,5.0,roundtrip,900.0,4900.0,3.4,5,45.9812856,-121.7580182,2020-07-09,14,https://www.wta.org/go-hiking/hikes/east-crater
Squak Mountain Access Trail,Issaquah Alps,2.0,roundtrip,,,3.2,5,47.5179289079,-122.036698759,2021-04-04,38,https://www.wta.org/go-hiking/hikes/east-access
Silver Star Mountain - Ed's Trail,Southwest Washington,5.0,roundtrip,1240.0,4390.0,4.36,14,45.7672834695,-122.243328094,2021-04-04,64,https://www.wta.org/go-hiking/hikes/eds-trail
East Rim Waterworks Canyon,Central Washington,3.0,roundtrip,450.0,,5.0,1,46.7502120649,-120.8152771,2021-02-07,27,https://www.wta.org/go-hiking/hikes/east-rim-waterworks-canyon
Elbow Peak,Snoqualmie Region,11.0,roundtrip,3740.0,5710.0,2.57,7,47.2953166667,-120.964966667,2021-03-06,33,https://www.wta.org/go-hiking/hikes/elbow-peak
Deep Creek,Mount Rainier Area,4.0,one-way,3000.0,5850.0,1.8,5,47.0073425754,-121.523692582,2020-12-11,33,https://www.wta.org/go-hiking/hikes/deep-creek
Deschutes River,Southwest Washington,4.6,roundtrip,650.0,750.0,0.0,0,45.6342131234,-120.908481626,2021-03-28,9,https://www.wta.org/go-hiking/hikes/deschutes-river
Deer Creek to Tipsoo Lake,Mount Rainier Area,10.0,roundtrip,2850.0,5375.0,2.33,3,46.8335333333,-121.535116667,2020-09-01,7,https://www.wta.org/go-hiking/hikes/deer-creek-to-tipsoo-lake
Dewey Lake,Mount Rainier Area,6.0,roundtrip,600.0,5900.0,3.92,26,46.8694,-121.51965,2020-11-01,196,https://www.wta.org/go-hiking/hikes/dewey-lakes
Dirtybox Peak,Snoqualmie Region,,,,,5.0,2,47.4633793994,-121.670837402,2021-04-18,29,https://www.wta.org/go-hiking/hikes/dirtybox-peak
Deception Pass State Park - North Beach,Puget Sound and Islands,1.8,roundtrip,100.0,,4.5,8,48.4008302828,-122.662010193,2021-03-19,74,https://www.wta.org/go-hiking/hikes/deception-pass-state-park-north-beach
Divide Camp,South Cascades,5.8,roundtrip,1400.0,6100.0,2.17,6,46.2728173521,-121.565008163,2020-10-31,30,https://www.wta.org/go-hiking/hikes/divide-camp
Domerie Peak,Snoqualmie Region,18.0,roundtrip,,,2.0,4,47.3463675918,-121.147068366,2020-09-22,26,https://www.wta.org/go-hiking/hikes/domerie-peak
Del Campo Peak,North Cascades,11.0,roundtrip,4200.0,6610.0,5.0,5,48.0264959,-121.4440005,2020-09-30,64,https://www.wta.org/go-hiking/hikes/del-campo-peak
Tolmie Peak Lookout - Eunice Lake,Mount Rainier Area,7.5,roundtrip,1100.0,5900.0,4.53,87,46.93789814318118,-121.86747550964355,2020-10-22,698,https://www.wta.org/go-hiking/hikes/tolmie-peak
Tamanos Mountain,Mount Rainier Area,10.0,roundtrip,3080.0,6790.0,3.8,5,46.8907833089,-121.596754789,2020-11-02,40,https://www.wta.org/go-hiking/hikes/tamanos-mountain
Grand Park via Sunrise,Mount Rainier Area,14.0,roundtrip,,,4.5,2,46.9143146492,-121.640178681,2020-09-03,28,https://www.wta.org/go-hiking/hikes/grand-park-via-sunrise
Stiletto Peak,North Cascades,10.4,roundtrip,3650.0,7660.0,4.0,3,48.504973,-120.719054,2020-09-29,16,https://www.wta.org/go-hiking/hikes/stiletto-peak
Cutthroat Pass via the Pacific Crest Trail,North Cascades,10.0,roundtrip,2000.0,6800.0,3.8,20,48.5180666667,-120.733133333,2020-10-18,292,https://www.wta.org/go-hiking/hikes/cutthroat-pass-via-pacific-crest-trail
Jack Mountain,North Cascades,,,,9066.0,0.0,0,48.7724,-120.957,2015-09-04,1,https://www.wta.org/go-hiking/hikes/jack-mountain
Rainy Lake,North Cascades,2.0,roundtrip,70.0,4800.0,3.5,8,48.5149657,-120.7354966,2020-10-07,81,https://www.wta.org/go-hiking/hikes/rainy-lake
Pacific Crest Trail (PCT) Section L - Rainy Pass to Manning Park,North Cascades,70.3,one-way,13649.0,7100.0,3.5,6,48.5247317189,-120.735784148,2020-10-03,57,https://www.wta.org/go-hiking/hikes/pacific-crest-trail-section-l-rainy-pass-to-manning-park
Heather - Maple Pass Loop,North Cascades,7.2,roundtrip,2000.0,6650.0,4.81,110,48.5162166667,-120.7354,2020-11-08,877,https://www.wta.org/go-hiking/hikes/maple-pass
Lone Fir Loop,North Cascades,2.0,roundtrip,100.0,,3.8,5,48.5799,-120.626966667,2020-06-25,14,https://www.wta.org/go-hiking/hikes/lone-fir
Little Jack Mountain,North Cascades,13.6,roundtrip,3935.0,5896.0,3.33,3,48.7055,-120.9608,2020-09-05,11,https://www.wta.org/go-hiking/hikes/little-jack-mountain
Hock Mountain,North Cascades,16.0,roundtrip,5000.0,7750.0,3.0,1,48.5090760368,-120.693571321,2014-09-28,1,https://www.wta.org/go-hiking/hikes/hock-mountain
Copper Pass via Copper Creek,North Cascades,9.8,roundtrip,2710.0,6720.0,0.0,0,48.5075,-120.7312,2020-10-04,25,https://www.wta.org/go-hiking/hikes/copper-pass-via-copper-creek
Ruby Creek,North Cascades,6.4,roundtrip,1230.0,1935.0,1.5,4,48.708047,-120.97803,2020-09-02,28,https://www.wta.org/go-hiking/hikes/ruby-creek
Willow Lake Trail,North Cascades,23.5,one-way,,2880.0,0.0,0,48.7078984536,-120.977947712,2017-06-11,2,https://www.wta.org/go-hiking/hikes/willow-lake-trail
Big Snagtooth,North Cascades,,,4000.0,8330.0,0.0,0,48.5479783143,-120.630569458,2020-06-27,4,https://www.wta.org/go-hiking/hikes/big-snagtooth
Rainbow-McAlester Loop,North Cascades,31.5,roundtrip,6650.0,6300.0,0.0,0,48.5076069,-120.7310183,2020-09-17,13,https://www.wta.org/go-hiking/hikes/rainbow-mcalester-loop
Silver Star Mountain (Okanogan),North Cascades,,,4500.0,8876.0,0.0,0,48.5500237673,-120.630569458,2020-05-29,8,https://www.wta.org/go-hiking/hikes/silver-star-mountain-okanogan
East Bank Ross Lake,North Cascades,31.0,one-way,800.0,,3.38,8,48.7054628958,-120.960845947,2021-04-11,110,https://www.wta.org/go-hiking/hikes/east-bank-ross-lake
Canyon Creek,North Cascades,7.0,roundtrip,700.0,2600.0,3.17,6,48.7062666667,-120.91855,2020-10-04,29,https://www.wta.org/go-hiking/hikes/canyon-creek
Jackita Ridge,North Cascades,15.2,roundtrip,3000.0,6800.0,2.6,5,48.7060157,-120.925009,2020-10-03,54,https://www.wta.org/go-hiking/hikes/jackita-ridge
Golden Horn - Snowy Lakes,North Cascades,23.0,roundtrip,2700.0,6900.0,3.75,12,48.5156197,-120.7361753,2020-10-02,88,https://www.wta.org/go-hiking/hikes/golden-horn
Fisher Creek,North Cascades,14.0,roundtrip,4000.0,6560.0,2.83,6,48.5879,-120.8029,2020-10-02,35,https://www.wta.org/go-hiking/hikes/fisher-creek
Easy Pass,North Cascades,7.0,roundtrip,2800.0,6500.0,3.89,18,48.5879166667,-120.802866667,2020-10-15,174,https://www.wta.org/go-hiking/hikes/easy-pass
Devils Dome Loop,North Cascades,43.0,roundtrip,,6980.0,4.2,10,48.7065490435,-120.918494873,2020-09-26,69,https://www.wta.org/go-hiking/hikes/devils-dome
Cutthroat Pass via Cutthroat Lake,North Cascades,11.4,roundtrip,2300.0,6800.0,3.5,10,48.5563899766,-120.654743537,2020-10-17,137,https://www.wta.org/go-hiking/hikes/cutthroat-pass
Chancellor,North Cascades,13.8,roundtrip,3500.0,6300.0,3.0,4,48.7028865,-120.9102921,2020-11-06,33,https://www.wta.org/go-hiking/hikes/chancellor
Bridge Creek - McAlester Pass to Stehekin,North Cascades,38.0,roundtrip,2500.0,4000.0,4.17,6,48.5075068116,-120.731163025,2020-09-03,34,https://www.wta.org/go-hiking/hikes/bridge-creek
Blue Lake,North Cascades,4.4,roundtrip,1050.0,6254.0,4.37,65,48.5191166667,-120.674216667,2020-11-02,496,https://www.wta.org/go-hiking/hikes/blue-lake
Concord Tower,North Cascades,,,,7560.0,0.0,0,48.51456,-120.65799,2019-08-18,3,https://www.wta.org/go-hiking/hikes/concord-tower
Riverside State Park - Trail 25,Eastern Washington,,,,,0.0,0,47.6842044111,-117.488116845,2021-03-13,34,https://www.wta.org/go-hiking/hikes/riverside-state-park-trail-25
Mount Spokane State Park - Trail 130 to CCC Cabin,Eastern Washington,5.0,roundtrip,575.0,,0.0,0,47.8859041586,-117.130444944,2020-11-11,13,https://www.wta.org/go-hiking/hikes/mount-spokane-state-park-trail-130-to-ccc-cabin
Silver Shadow Loop,Southwest Washington,5.0,one-way,500.0,2477.0,0.0,0,45.7930192023,-122.301861676,2020-12-11,8,https://www.wta.org/go-hiking/hikes/silver-shadow-loop
Alta Lake State Park,North Cascades,2.0,roundtrip,,,0.0,0,48.0294420034,-119.935759306,2020-06-18,10,https://www.wta.org/go-hiking/hikes/alta-lake-state-park
Discovery Park Beach and Highlands Loop,Puget Sound and Islands,5.1,roundtrip,380.0,345.0,4.22,9,47.6579193368,-122.406111359,2021-01-13,54,https://www.wta.org/go-hiking/hikes/discovery-park-beach-and-history
Cape Disappointment State Park - North Head Trail,Southwest Washington,1.8,one-way,420.0,200.0,0.0,0,46.2980789138,-124.072827324,2020-08-14,18,https://www.wta.org/go-hiking/hikes/cape-disappointment-state-park-north-head-trail
Inside Passage,Issaquah Alps,6.2,roundtrip,1600.0,2150.0,0.0,0,47.4683745688,-121.93631035,2021-03-08,10,https://www.wta.org/go-hiking/hikes/inside-passage
Mount Spokane State Park - Mount Kit Carson Loop Road,Eastern Washington,13.0,roundtrip,1300.0,5220.0,0.0,0,,,2020-02-14,25,https://www.wta.org/go-hiking/hikes/mount-spokane-state-park-mount-kit-carson-loop-road
Kautz Creek to Indian Henry's Hunting Ground,Mount Rainier Area,11.0,roundtrip,3800.0,5335.0,3.58,12,46.73635,-121.85555,2021-04-17,116,https://www.wta.org/go-hiking/hikes/kautz-creek-to-indian-henrys-hunting-ground
Longmire to Devil's Dream Camp,Mount Rainier Area,5.5,one-way,2400.0,5000.0,0.0,0,46.7537111164,-121.813101768,2020-08-18,8,https://www.wta.org/go-hiking/hikes/wonderland-trail-longmire-to-devils-dream-camp
Appaloosa Trail,Southwest Washington,3.0,one-way,,,0.0,0,45.7757,-122.3378,,0,https://www.wta.org/go-hiking/hikes/appaloosa-trail
Lake Whatcom Park - Chanterelle Trail,Puget Sound and Islands,4.8,roundtrip,1000.0,1314.0,4.17,6,48.730215809,-122.309016735,2021-04-18,61,https://www.wta.org/go-hiking/hikes/lake-whatcom-park-chanterelle-trail
Lewis and Clark Trail State Park,Eastern Washington,0.8,roundtrip,10.0,1400.0,3.0,1,46.2896,-118.07135,2017-04-01,1,https://www.wta.org/go-hiking/hikes/lewis-and-clark-trail-state-park
Mount Spokane State Park - Upper Trail 140,Eastern Washington,3.0,roundtrip,1341.0,5867.0,3.5,2,47.8859245,-117.0863656,2020-06-01,16,https://www.wta.org/go-hiking/hikes/mount-spokane-state-park-upper-trail-140
Cape Disappointment State Park - Cape Disappointment Lighthouse,Southwest Washington,0.6,roundtrip,150.0,200.0,0.0,0,46.2784917798,-124.052742063,2020-10-10,38,https://www.wta.org/go-hiking/hikes/cape-disappointment-state-park-cape-disappointment-lighthouse
Larch Mountain (Silver Star),Southwest Washington,5.6,roundtrip,1150.0,3496.0,3.5,2,45.7214372564,-122.269334793,2020-09-20,10,https://www.wta.org/go-hiking/hikes/larch-mountain-silver-star
Silver Star Mountain via Pyramid Rock Trail,Southwest Washington,3.2,one-way,1990.0,4390.0,4.0,1,45.7217387405,-122.269581556,2021-01-23,8,https://www.wta.org/go-hiking/hikes/silver-star-mountain-via-pyramid-rock-trail
Longmire to Cougar Rock Campground Snowshoe,Mount Rainier Area,7.6,roundtrip,1300.0,4100.0,3.67,3,46.7502968332,-121.812211275,2021-04-07,28,https://www.wta.org/go-hiking/hikes/wonderland-trail-snowshoe
West Side Road,Issaquah Alps,,,,,2.75,4,,,2021-03-23,29,https://www.wta.org/go-hiking/hikes/west-side-road
Green Mountain - Wildcat Trail,Olympic Peninsula,9.5,roundtrip,1900.0,1639.0,4.5,4,47.6003,-122.788061,2021-03-16,59,https://www.wta.org/go-hiking/hikes/wildcat-trail
Westport State Park - Westport Light Trail,Southwest Washington,2.0,roundtrip,15.0,30.0,5.0,1,46.8868420871,-124.12379163,2021-02-21,24,https://www.wta.org/go-hiking/hikes/westport-light-trail
West Tiger Railroad Grade,Issaquah Alps,8.7,trails,1800.0,2000.0,2.0,6,47.52965,-121.9957,2021-04-22,163,https://www.wta.org/go-hiking/hikes/west-tiger-railroad-grade
Westside Road,Mount Rainier Area,11.0,roundtrip,,,1.75,4,46.7353900343,-121.856575012,2020-10-25,63,https://www.wta.org/go-hiking/hikes/westside-road
Sun Lakes-Dry Falls State Park - Umatilla Rock via Monument Coulee,Central Washington,5.0,roundtrip,100.0,,3.4,5,47.5854899,-119.3556542,2021-04-01,42,https://www.wta.org/go-hiking/hikes/umatilla-rock-monument-coulee
Van Trump Park,Mount Rainier Area,6.0,roundtrip,2150.0,5850.0,4.36,25,46.7790333333,-121.7823,2020-11-08,178,https://www.wta.org/go-hiking/hikes/van-trump-park
Wahatis Peak,Central Washington,,,,,0.0,0,46.806522118,-119.558233022,2020-06-16,5,https://www.wta.org/go-hiking/hikes/wahatis-peak
Turkey Creek,Eastern Washington,8.0,roundtrip,2060.0,5300.0,4.25,4,,,2019-07-23,11,https://www.wta.org/go-hiking/hikes/turkey-creek
Twin Firs Loop,Mount Rainier Area,0.5,roundtrip,50.0,2550.0,3.12,8,46.7343666667,-121.838783333,2021-03-14,22,https://www.wta.org/go-hiking/hikes/twin-firs-loop
Tradition Lake Loop,Issaquah Alps,2.9,roundtrip,150.0,540.0,3.81,16,47.52965,-121.9957,2021-04-02,105,https://www.wta.org/go-hiking/hikes/tradition-lakes
Trail of the Shadows,Mount Rainier Area,0.7,roundtrip,20.0,2770.0,2.73,11,46.7496666667,-121.81065,2020-12-23,56,https://www.wta.org/go-hiking/hikes/trail-of-the-shadows
Anderson Landing Preserve,Olympic Peninsula,2.0,roundtrip,,,0.0,0,47.662181,-122.763182,2020-08-24,9,https://www.wta.org/go-hiking/hikes/anderson-landing-nature-preserve
Rocky Top,Central Washington,,,,,4.0,1,46.6278,-120.683691,2021-04-02,24,https://www.wta.org/go-hiking/hikes/rocky-top
Paramount Open Space,Puget Sound and Islands,0.95,roundtrip,120.0,380.0,1.0,1,47.7364124006,-122.318096515,2018-01-06,2,https://www.wta.org/go-hiking/hikes/paramount-open-space
Deadwood Lakes,Mount Rainier Area,2.2,roundtrip,470.0,5600.0,0.0,0,46.8747660135,-121.517205834,2019-07-18,5,https://www.wta.org/go-hiking/hikes/deadwood-lakes
Indian Trail,Puget Sound and Islands,3.0,roundtrip,32.0,320.0,2.0,2,47.4519121879,-122.378999591,2021-04-13,18,https://www.wta.org/go-hiking/hikes/indian-trail-burien
Big Tree Trail,Olympic Peninsula,1.5,roundtrip,200.0,400.0,4.0,5,47.5870058504,-122.734478124,2021-03-11,43,https://www.wta.org/go-hiking/hikes/big-tree-trail-1
Kettle Crest Trail,Eastern Washington,44.0,one-way,8000.0,7140.0,5.0,1,48.5009953838,-118.421459198,2020-07-17,8,https://www.wta.org/go-hiking/hikes/kettle-crest-trail
Salmon-Morgan Creeks Natural Area,Southwest Washington,1.5,roundtrip,,,3.5,2,45.7555963522,-122.511127532,2020-10-28,23,https://www.wta.org/go-hiking/hikes/salmon-morgan-creek
Forest Park - Everett,Puget Sound and Islands,4.9,trails,1100.0,370.0,3.5,2,47.9621404261,-122.219424247,2021-02-07,20,https://www.wta.org/go-hiking/hikes/forest-park-everett
